[
  {
    "iata": "UTK",
    "lon": "169.86667",
    "iso": "MH",
    "status": 1,
    "name": "Utirik Airport",
    "continent": "OC",
    "lat": "11.233333"
  },
  {
    "iata": "WKK",
    "lon": "-158.61111",
    "iso": "US",
    "status": 1,
    "name": "Aleknagik / New Airport",
    "continent": "NA",
    "lat": "59.27778"
  },
  {
    "iata": "FOB",
    "lon": "-123.79444",
    "iso": "US",
    "status": 1,
    "name": "Fort Bragg Airport",
    "continent": "NA",
    "lat": "39.474445"
  },
  {
    "iata": "ABP",
    "lon": "141.1",
    "iso": "PG",
    "status": 1,
    "name": "Atkamba Airport",
    "continent": "OC",
    "lat": "-6.066667"
  },
  {
    "iata": "ADC",
    "lon": "145.73334",
    "iso": "PG",
    "status": 1,
    "name": "Andakombe Airport",
    "continent": "OC",
    "lat": "-7.133333"
  },
  {
    "iata": "TJP",
    "lon": "-66.563545",
    "iso": "PR",
    "status": 1,
    "name": "Areopuerto Internacional Michael Gonzalez",
    "continent": "NA",
    "lat": "18.010702"
  },
  {
    "iata": "AEE",
    "iso": "SS",
    "status": 1,
    "name": "Adareil Airport",
    "continent": "AF"
  },
  {
    "iata": "AEK",
    "lon": "146.28334",
    "iso": "PG",
    "status": 1,
    "name": "Aseki Airport",
    "continent": "OC",
    "lat": "-7.366667"
  },
  {
    "iata": "OLR",
    "lon": "36.130333",
    "iso": "AF",
    "status": 1,
    "name": "Salerno Landing Zone Airport",
    "continent": "AS",
    "lat": "34.023167"
  },
  {
    "iata": "AFR",
    "lon": "148.38333",
    "iso": "PG",
    "status": 1,
    "name": "Afore Airstrip",
    "continent": "OC",
    "lat": "-9.133333"
  },
  {
    "iata": "AFT",
    "lon": "160.85",
    "iso": "SB",
    "status": 1,
    "name": "Afutara Aerodrome",
    "continent": "OC",
    "lat": "-9.2"
  },
  {
    "iata": "ATD",
    "lon": "161.03334",
    "iso": "SB",
    "status": 1,
    "name": "Uru Harbour Airport",
    "continent": "OC",
    "lat": "-8.866667"
  },
  {
    "iata": "VEV",
    "lon": "159.55",
    "iso": "SB",
    "status": 1,
    "name": "Barakoma Airport",
    "continent": "OC",
    "lat": "-7.85"
  },
  {
    "iata": "GEF",
    "lon": "156.59778",
    "iso": "SB",
    "status": 1,
    "name": "Geva Airport",
    "continent": "OC",
    "lat": "-7.578333"
  },
  {
    "iata": "AGG",
    "lon": "144.07388",
    "iso": "PG",
    "status": 1,
    "name": "Angoram Airport",
    "continent": "OC",
    "lat": "-4.168611"
  },
  {
    "iata": "AKS",
    "lon": "160.68083",
    "iso": "SB",
    "status": 1,
    "name": "Auki Airport",
    "continent": "OC",
    "lat": "-8.697778"
  },
  {
    "iata": "BAS",
    "lon": "155.88333",
    "iso": "SB",
    "status": 1,
    "name": "Ballalae Airport",
    "continent": "OC",
    "lat": "-6.983333"
  },
  {
    "iata": "FRE",
    "lon": "159.58333",
    "iso": "SB",
    "status": 1,
    "name": "Fera/Maringe Airport",
    "continent": "OC",
    "lat": "-8.1"
  },
  {
    "iata": "HIR",
    "lon": "160.04819",
    "iso": "SB",
    "status": 1,
    "name": "Honiara International Airport",
    "continent": "OC",
    "lat": "-9.428592"
  },
  {
    "iata": "MBU",
    "lon": "160.75",
    "iso": "SB",
    "status": 1,
    "name": "Babanakira Airport",
    "continent": "OC",
    "lat": "-9.733333"
  },
  {
    "iata": "IRA",
    "lon": "161.83333",
    "iso": "SB",
    "status": 1,
    "name": "Ngorangora Airport",
    "continent": "OC",
    "lat": "-10.5"
  },
  {
    "iata": "SCZ",
    "lon": "166.85",
    "iso": "SB",
    "status": 1,
    "name": "Santa Cruz/Graciosa Bay/Luova Airport",
    "continent": "OC",
    "lat": "-11.616667"
  },
  {
    "iata": "MUA",
    "lon": "157.26971",
    "iso": "SB",
    "status": 1,
    "name": "Munda Airport",
    "continent": "OC",
    "lat": "-8.32794"
  },
  {
    "iata": "GZO",
    "lon": "156.83333",
    "iso": "SB",
    "status": 1,
    "name": "Nusatupe Airport",
    "continent": "OC",
    "lat": "-8.116667"
  },
  {
    "iata": "MNY",
    "lon": "155.56462",
    "iso": "SB",
    "status": 1,
    "name": "Mono Airport",
    "continent": "OC",
    "lat": "-7.417428"
  },
  {
    "iata": "PRS",
    "lon": "158.0",
    "iso": "SB",
    "status": 1,
    "name": "Parasi Airport",
    "continent": "OC",
    "lat": "-8.166667"
  },
  {
    "iata": "RNL",
    "lon": "160.3",
    "iso": "SB",
    "status": 1,
    "name": "Rennell/Tingoa Airport",
    "continent": "OC",
    "lat": "-11.666667"
  },
  {
    "iata": "EGM",
    "lon": "157.87506",
    "iso": "SB",
    "status": 1,
    "name": "Sege Airport",
    "continent": "OC",
    "lat": "-8.577956"
  },
  {
    "iata": "RUS",
    "lon": "161.25",
    "iso": "SB",
    "status": 1,
    "name": "Marau Airport",
    "continent": "OC",
    "lat": "-8.5"
  },
  {
    "iata": "VAO",
    "lon": "158.66667",
    "iso": "SB",
    "status": 1,
    "name": "Suavanao Airport",
    "continent": "OC",
    "lat": "-7.566667"
  },
  {
    "iata": "AGK",
    "lon": "143.84666",
    "iso": "PG",
    "status": 1,
    "name": "Kagua Airport",
    "continent": "OC",
    "lat": "-6.403333"
  },
  {
    "iata": "KGE",
    "lon": "157.5861",
    "iso": "SB",
    "status": 1,
    "name": "Kagau Island Airport",
    "continent": "OC",
    "lat": "-8.165"
  },
  {
    "iata": "AGL",
    "lon": "149.15527",
    "iso": "PG",
    "status": 1,
    "name": "Wanigela Airport",
    "continent": "OC",
    "lat": "-9.340278"
  },
  {
    "iata": "RIN",
    "lon": "157.03334",
    "iso": "SB",
    "status": 1,
    "name": "Ringi Cove Airport",
    "continent": "OC",
    "lat": "-8.2"
  },
  {
    "iata": "RBV",
    "lon": "157.63945",
    "iso": "SB",
    "status": 1,
    "name": "Ramata Airport",
    "continent": "OC",
    "lat": "-8.165556"
  },
  {
    "iata": "AHY",
    "lon": "45.533333",
    "iso": "MG",
    "status": 1,
    "name": "Ambatolhy Airport",
    "continent": "AF",
    "lat": "-20.016666"
  },
  {
    "iata": "AIE",
    "lon": "144.66667",
    "iso": "PG",
    "status": 1,
    "name": "Aiome Airport",
    "continent": "OC",
    "lat": "-5.166667"
  },
  {
    "iata": "AIH",
    "lon": "141.26639",
    "iso": "PG",
    "status": 1,
    "name": "Aiambak Airport",
    "continent": "OC",
    "lat": "-7.348611"
  },
  {
    "iata": "AIP",
    "lon": "168.81667",
    "iso": "MH",
    "status": 1,
    "name": "Ailinglaplap Airport",
    "continent": "OC",
    "lat": "7.266667"
  },
  {
    "iata": "AKM",
    "lon": "19.816668",
    "iso": "TD",
    "status": 1,
    "name": "Zakuoma Airport",
    "continent": "AF",
    "lat": "10.883333"
  },
  {
    "iata": "AMC",
    "lon": "20.283333",
    "iso": "MX",
    "status": 1,
    "name": null,
    "continent": "NA",
    "lat": "11.033333"
  },
  {
    "iata": "AME",
    "lon": "37.583332",
    "iso": "MZ",
    "status": 1,
    "name": "Alto Molocue Airport",
    "continent": "AF",
    "lat": "-15.833333"
  },
  {
    "iata": "AMF",
    "lon": "141.66667",
    "iso": "PG",
    "status": 1,
    "name": "AMA Airport",
    "continent": "OC",
    "lat": "-4.166667"
  },
  {
    "iata": "AMU",
    "lon": "141.15",
    "iso": "PG",
    "status": 1,
    "name": "Amanab Airport",
    "continent": "OC",
    "lat": "-3.516667"
  },
  {
    "iata": "AMY",
    "lon": "45.666668",
    "iso": "MG",
    "status": 1,
    "name": "Ambatomainty Airport",
    "continent": "AF",
    "lat": "-17.683332"
  },
  {
    "iata": "INU",
    "lon": "166.91667",
    "iso": "NR",
    "status": 1,
    "name": "Nauru International Airport",
    "continent": "OC",
    "lat": "-0.533333"
  },
  {
    "iata": "ANL",
    "lon": "17.25",
    "iso": "AO",
    "status": 1,
    "name": "Andulo Airport",
    "continent": "AF",
    "lat": "-11.25"
  },
  {
    "iata": "CNZ",
    "lon": "19.0",
    "iso": "AO",
    "status": 1,
    "name": "Cangamba Airport",
    "continent": "AF",
    "lat": "-11.5"
  },
  {
    "iata": "DRC",
    "lon": "20.7",
    "iso": "AO",
    "status": 1,
    "name": "Dirico Airport",
    "continent": "AF",
    "lat": "-17.833332"
  },
  {
    "iata": "GGC",
    "lon": "22.566668",
    "iso": "AO",
    "status": 1,
    "name": "Lumbala Airport",
    "continent": "AF",
    "lat": "-12.65"
  },
  {
    "iata": "JMB",
    "lon": "16.083332",
    "iso": "AO",
    "status": 1,
    "name": "Jamba Airport",
    "continent": "AF",
    "lat": "-14.7"
  },
  {
    "iata": "KNP",
    "lon": "15.450278",
    "iso": "AO",
    "status": 1,
    "name": "Capanda Airport",
    "continent": "AF",
    "lat": "-9.766944"
  },
  {
    "iata": "NDF",
    "lon": "14.833333",
    "iso": "AO",
    "status": 1,
    "name": "Ndalatandos Airport",
    "continent": "AF",
    "lat": "-9.333333"
  },
  {
    "iata": "AOB",
    "lon": "144.65",
    "iso": "PG",
    "status": 1,
    "name": "Annanberg Airport",
    "continent": "OC",
    "lat": "-4.916667"
  },
  {
    "iata": "APP",
    "lon": "148.13333",
    "iso": "PG",
    "status": 1,
    "name": "Asapa Airport",
    "continent": "OC",
    "lat": "-8.983333"
  },
  {
    "iata": "APR",
    "lon": "145.0",
    "iso": "PG",
    "status": 1,
    "name": "April River Airport",
    "continent": "OC",
    "lat": "-8.5"
  },
  {
    "iata": "AQY",
    "lon": "-149.11667",
    "iso": "US",
    "status": 1,
    "name": "Girdwood Airport",
    "continent": "NA",
    "lat": "60.966667"
  },
  {
    "iata": "QRF",
    "lon": "-60.466667",
    "iso": "AR",
    "status": 1,
    "name": "Bragado Airport",
    "continent": "SA",
    "lat": "-35.13333"
  },
  {
    "iata": "CSZ",
    "lon": "-61.88333",
    "iso": "AR",
    "status": 1,
    "name": "Brigadier Hector Ruiz Airport",
    "continent": "SA",
    "lat": "-37.433334"
  },
  {
    "iata": "CVI",
    "lon": "-67.416664",
    "iso": "AR",
    "status": 1,
    "name": "Caleta Olivia Airport",
    "continent": "SA",
    "lat": "-46.416668"
  },
  {
    "iata": "CNT",
    "lon": "-61.233334",
    "iso": "AR",
    "status": 1,
    "name": "Charata Airport",
    "continent": "SA",
    "lat": "-27.216667"
  },
  {
    "iata": "VGS",
    "lon": "-63.0",
    "iso": "AR",
    "status": 1,
    "name": "General Villegas Airport",
    "continent": "SA",
    "lat": "-35.083332"
  },
  {
    "iata": "LMD",
    "lon": "-68.13333",
    "iso": "AR",
    "status": 1,
    "name": "Los Menucos Airport",
    "continent": "SA",
    "lat": "-40.833332"
  },
  {
    "iata": "VCF",
    "lon": "-66.15",
    "iso": "AR",
    "status": 1,
    "name": "Valcheta Airport",
    "continent": "SA",
    "lat": "-40.7"
  },
  {
    "iata": "VME",
    "lon": "-65.416664",
    "iso": "AR",
    "status": 1,
    "name": "Villa Mercedes Airport",
    "continent": "SA",
    "lat": "-33.63333"
  },
  {
    "iata": "NCJ",
    "iso": "AR",
    "status": 1,
    "name": "Sunchales Aeroclub Airport",
    "continent": "SA"
  },
  {
    "iata": "CPG",
    "lon": "-62.979782",
    "iso": "AR",
    "status": 1,
    "name": "Carmen De Patagones Airport",
    "continent": "SA",
    "lat": "-40.782757"
  },
  {
    "iata": "PRQ",
    "lon": "-60.666668",
    "iso": "AR",
    "status": 1,
    "name": "Termal Airport",
    "continent": "SA",
    "lat": "-26.833332"
  },
  {
    "iata": "ARP",
    "lon": "149.5",
    "iso": "PG",
    "status": 1,
    "name": "Aragip Airport",
    "continent": "OC",
    "lat": "-9.8"
  },
  {
    "iata": "TAV",
    "lon": "-169.45",
    "iso": "AS",
    "status": 1,
    "name": "Tau Airport",
    "continent": "OC",
    "lat": "-14.25"
  },
  {
    "iata": "ASZ",
    "lon": "150.36667",
    "iso": "PG",
    "status": 1,
    "name": "Asirim Airport",
    "continent": "OC",
    "lat": "-5.866667"
  },
  {
    "iata": "ATP",
    "lon": "142.28334",
    "iso": "PG",
    "status": 1,
    "name": "Aitape Airport",
    "continent": "OC",
    "lat": "-3.166667"
  },
  {
    "iata": "AGW",
    "lon": "142.15",
    "iso": "AU",
    "status": 1,
    "name": "Agnew Airport",
    "continent": "OC",
    "lat": "-12.15"
  },
  {
    "iata": "AYD",
    "lon": "135.95",
    "iso": "AU",
    "status": 1,
    "name": "Alroy Downs Airport",
    "continent": "OC",
    "lat": "-19.3"
  },
  {
    "iata": "BCK",
    "lon": "144.16667",
    "iso": "AU",
    "status": 1,
    "name": "Bolwarra Airport",
    "continent": "OC",
    "lat": "-17.4"
  },
  {
    "iata": "BFC",
    "lon": "145.33333",
    "iso": "AU",
    "status": 1,
    "name": "Bloomfield Airport",
    "continent": "OC",
    "lat": "-15.9"
  },
  {
    "iata": "BVW",
    "lon": "143.21666",
    "iso": "AU",
    "status": 1,
    "name": "Batavia Downs Airport",
    "continent": "OC",
    "lat": "-12.65"
  },
  {
    "iata": "BYX",
    "lon": "136.23334",
    "iso": "AU",
    "status": 1,
    "name": "Baniyala Airport",
    "continent": "OC",
    "lat": "-13.2"
  },
  {
    "iata": "COB",
    "lon": "130.93333",
    "iso": "AU",
    "status": 1,
    "name": "Coolibah Airport",
    "continent": "OC",
    "lat": "-15.55"
  },
  {
    "iata": "CQP",
    "lon": "147.5",
    "iso": "AU",
    "status": 1,
    "name": "Cape Flattery Airport",
    "continent": "OC",
    "lat": "-18.2"
  },
  {
    "iata": "CRJ",
    "lon": "132.3",
    "iso": "AU",
    "status": 1,
    "name": "Coorabie Airport",
    "continent": "OC",
    "lat": "-31.9"
  },
  {
    "iata": "CRY",
    "lon": "128.61667",
    "iso": "AU",
    "status": 1,
    "name": "Carlton Hill Airport",
    "continent": "OC",
    "lat": "-15.466667"
  },
  {
    "iata": "CSD",
    "lon": "135.91667",
    "iso": "AU",
    "status": 1,
    "name": "Cresswell Downs Airport",
    "continent": "OC",
    "lat": "-17.966667"
  },
  {
    "iata": "CTR",
    "lon": "131.0",
    "iso": "AU",
    "status": 1,
    "name": "Cattle Creek Airport",
    "continent": "OC",
    "lat": "-17.583332"
  },
  {
    "iata": "DYM",
    "lon": "139.16667",
    "iso": "AU",
    "status": 1,
    "name": "Diamantina Lakes Airport",
    "continent": "OC",
    "lat": "-26.75"
  },
  {
    "iata": "EDD",
    "lon": "133.2",
    "iso": "AU",
    "status": 1,
    "name": "Erldunda Airport",
    "continent": "OC",
    "lat": "-25.25"
  },
  {
    "iata": "EKD",
    "lon": "135.55",
    "iso": "AU",
    "status": 1,
    "name": "Elkedra Airport",
    "continent": "OC",
    "lat": "-21.15"
  },
  {
    "iata": "HAT",
    "lon": "140.58333",
    "iso": "AU",
    "status": 1,
    "name": "Heathlands Airport",
    "continent": "OC",
    "lat": "-19.720833"
  },
  {
    "iata": "HIG",
    "lon": "143.15",
    "iso": "AU",
    "status": 1,
    "name": "Highbury Airport",
    "continent": "OC",
    "lat": "-16.416668"
  },
  {
    "iata": "HLV",
    "lon": "145.2",
    "iso": "AU",
    "status": 1,
    "name": "Helenvale Airport",
    "continent": "OC",
    "lat": "-15.683333"
  },
  {
    "iata": "KBD",
    "lon": "124.35",
    "iso": "AU",
    "status": 1,
    "name": "Kimberley Downs Airport",
    "continent": "OC",
    "lat": "-17.333332"
  },
  {
    "iata": "KGR",
    "lon": "133.03334",
    "iso": "AU",
    "status": 1,
    "name": "Kulgera Airport",
    "continent": "OC",
    "lat": "-25.833332"
  },
  {
    "iata": "KOH",
    "lon": "142.41667",
    "iso": "AU",
    "status": 1,
    "name": "Koolatah Airport",
    "continent": "OC",
    "lat": "-15.966667"
  },
  {
    "iata": "KYF",
    "lon": "120.075",
    "iso": "AU",
    "status": 1,
    "name": "Yeelirrie Airport",
    "continent": "OC",
    "lat": "-27.277779"
  },
  {
    "iata": "LIB",
    "lon": "129.8",
    "iso": "AU",
    "status": 1,
    "name": "Limbunya Airport",
    "continent": "OC",
    "lat": "-17.2"
  },
  {
    "iata": "MNW",
    "lon": "135.21666",
    "iso": "AU",
    "status": 1,
    "name": "Macdonald Downs Airport",
    "continent": "OC",
    "lat": "-22.45"
  },
  {
    "iata": "MUP",
    "lon": "141.05",
    "iso": "AU",
    "status": 1,
    "name": "Mulga Park Airport",
    "continent": "OC",
    "lat": "-31.133333"
  },
  {
    "iata": "MWY",
    "lon": "141.51666",
    "iso": "AU",
    "status": 1,
    "name": "Miranda Downs Airport",
    "continent": "OC",
    "lat": "-25.783333"
  },
  {
    "iata": "MYO",
    "lon": "124.26667",
    "iso": "AU",
    "status": 1,
    "name": "Camballin Airport",
    "continent": "OC",
    "lat": "-18.116667"
  },
  {
    "iata": "NKB",
    "lon": "124.85",
    "iso": "AU",
    "status": 1,
    "name": "Noonkanbah Airport",
    "continent": "OC",
    "lat": "-18.55"
  },
  {
    "iata": "OKB",
    "lon": "153.16667",
    "iso": "AU",
    "status": 1,
    "name": "Orchid Beach Airport",
    "continent": "OC",
    "lat": "-25.25"
  },
  {
    "iata": "PEP",
    "lon": "130.1",
    "iso": "AU",
    "status": 1,
    "name": "Peppimenarti Airport",
    "continent": "OC",
    "lat": "-14.15"
  },
  {
    "iata": "RDA",
    "lon": "135.16667",
    "iso": "AU",
    "status": 1,
    "name": "Rockhampton Downs Airport",
    "continent": "OC",
    "lat": "-18.95"
  },
  {
    "iata": "SSK",
    "lon": "128.13333",
    "iso": "AU",
    "status": 1,
    "name": "Sturt Creek Airport",
    "continent": "OC",
    "lat": "-19.2"
  },
  {
    "iata": "SWB",
    "lon": "119.36667",
    "iso": "AU",
    "status": 1,
    "name": "Shaw River Airport",
    "continent": "OC",
    "lat": "-21.516666"
  },
  {
    "iata": "TPR",
    "lon": "117.666664",
    "iso": "AU",
    "status": 1,
    "name": "Tom Price Airport",
    "continent": "OC",
    "lat": "-22.75"
  },
  {
    "iata": "TWP",
    "lon": "143.75",
    "iso": "AU",
    "status": 1,
    "name": "Torwood Airport",
    "continent": "OC",
    "lat": "-17.366667"
  },
  {
    "iata": "WRW",
    "lon": "120.71667",
    "iso": "AU",
    "status": 1,
    "name": "Warrawagine Airport",
    "continent": "OC",
    "lat": "-20.866667"
  },
  {
    "iata": "WSY",
    "lon": "148.75278",
    "iso": "AU",
    "status": 1,
    "name": "Whitsunday Airstrip",
    "continent": "OC",
    "lat": "-20.502777"
  },
  {
    "iata": "ZVG",
    "lon": "127.583336",
    "iso": "AU",
    "status": 1,
    "name": "Springvale Airport",
    "continent": "OC",
    "lat": "-17.866667"
  },
  {
    "iata": "AUI",
    "lon": "143.075",
    "iso": "PG",
    "status": 1,
    "name": "Aua Island Airport",
    "continent": "OC",
    "lat": "-1.458333"
  },
  {
    "iata": "AUJ",
    "lon": "142.85",
    "iso": "PG",
    "status": 1,
    "name": "Ambunti Airport",
    "continent": "OC",
    "lat": "-4.25"
  },
  {
    "iata": "AUP",
    "lon": "149.58333",
    "iso": "PG",
    "status": 1,
    "name": "Agaun Airport",
    "continent": "OC",
    "lat": "-9.983333"
  },
  {
    "iata": "AUV",
    "lon": "148.43333",
    "iso": "PG",
    "status": 1,
    "name": "Aumo Airport",
    "continent": "OC",
    "lat": "-5.716667"
  },
  {
    "iata": "BUA",
    "lon": "154.67288",
    "iso": "PG",
    "status": 1,
    "name": "Buka Airport",
    "continent": "OC",
    "lat": "-5.422443"
  },
  {
    "iata": "CMU",
    "lon": "144.97444",
    "iso": "PG",
    "status": 1,
    "name": "Chimbu Airport",
    "continent": "OC",
    "lat": "-5.993889"
  },
  {
    "iata": "DAU",
    "lon": "143.20605",
    "iso": "PG",
    "status": 1,
    "name": "Daru Airport",
    "continent": "OC",
    "lat": "-9.08351"
  },
  {
    "iata": "GKA",
    "lon": "145.39293",
    "iso": "PG",
    "status": 1,
    "name": "Goroka Airport",
    "continent": "OC",
    "lat": "-6.075244"
  },
  {
    "iata": "GUR",
    "lon": "150.33861",
    "iso": "PG",
    "status": 1,
    "name": "Gurney Airport",
    "continent": "OC",
    "lat": "-10.310833"
  },
  {
    "iata": "PNP",
    "lon": "148.30873",
    "iso": "PG",
    "status": 1,
    "name": "Girua Airport",
    "continent": "OC",
    "lat": "-8.807474"
  },
  {
    "iata": "HKN",
    "lon": "150.403",
    "iso": "PG",
    "status": 1,
    "name": "Kimbe Airport",
    "continent": "OC",
    "lat": "-5.456876"
  },
  {
    "iata": "LSA",
    "lon": "151.025",
    "iso": "PG",
    "status": 1,
    "name": "Losuia Airport",
    "continent": "OC",
    "lat": "-8.363889"
  },
  {
    "iata": "UNG",
    "lon": "141.28601",
    "iso": "PG",
    "status": 1,
    "name": "Kiunga Airport",
    "continent": "OC",
    "lat": "-6.125552"
  },
  {
    "iata": "KRI",
    "lon": "144.26666",
    "iso": "PG",
    "status": 1,
    "name": "Kikori Airport",
    "continent": "OC",
    "lat": "-7.483333"
  },
  {
    "iata": "KMA",
    "lon": "145.77155",
    "iso": "PG",
    "status": 1,
    "name": "Kerema Airport",
    "continent": "OC",
    "lat": "-7.961702"
  },
  {
    "iata": "KVG",
    "lon": "150.80653",
    "iso": "PG",
    "status": 1,
    "name": "Kavieng Airport",
    "continent": "OC",
    "lat": "-2.58075"
  },
  {
    "iata": "LNV",
    "lon": "152.6272",
    "iso": "PG",
    "status": 1,
    "name": "Londolovit Airport",
    "continent": "OC",
    "lat": "-3.043223"
  },
  {
    "iata": "MAG",
    "lon": "145.78784",
    "iso": "PG",
    "status": 1,
    "name": "Madang Airport",
    "continent": "OC",
    "lat": "-5.210852"
  },
  {
    "iata": "HGU",
    "lon": "144.29738",
    "iso": "PG",
    "status": 1,
    "name": "Mount Hagen Kagamuga Airport",
    "continent": "OC",
    "lat": "-5.828767"
  },
  {
    "iata": "MDU",
    "lon": "143.65",
    "iso": "PG",
    "status": 1,
    "name": "Mendi Airport",
    "continent": "OC",
    "lat": "-6.158611"
  },
  {
    "iata": "MAS",
    "lon": "147.42444",
    "iso": "PG",
    "status": 1,
    "name": "Momote Airport",
    "continent": "OC",
    "lat": "-2.056667"
  },
  {
    "iata": "MXH",
    "lon": "143.25055",
    "iso": "PG",
    "status": 1,
    "name": "Moro Airport",
    "continent": "OC",
    "lat": "-6.3525"
  },
  {
    "iata": "MIS",
    "lon": "152.84166",
    "iso": "PG",
    "status": 1,
    "name": "Misima Island Airport",
    "continent": "OC",
    "lat": "-10.5"
  },
  {
    "iata": "LAE",
    "lon": "146.72757",
    "iso": "PG",
    "status": 1,
    "name": "Lae Nadzab Airport",
    "continent": "OC",
    "lat": "-6.562694"
  },
  {
    "iata": "POM",
    "lon": "147.21446",
    "iso": "PG",
    "status": 1,
    "name": "Port Moresby Jacksons International Airport",
    "continent": "OC",
    "lat": "-9.444308"
  },
  {
    "iata": "TIZ",
    "lon": "142.94055",
    "iso": "PG",
    "status": 1,
    "name": "Tari Airport",
    "continent": "OC",
    "lat": "-5.860556"
  },
  {
    "iata": "TBG",
    "lon": "141.227",
    "iso": "PG",
    "status": 1,
    "name": "Tabubil Airport",
    "continent": "OC",
    "lat": "-5.274722"
  },
  {
    "iata": "RAB",
    "lon": "152.36667",
    "iso": "PG",
    "status": 1,
    "name": "Tokua Airport",
    "continent": "OC",
    "lat": "-4.333333"
  },
  {
    "iata": "AYU",
    "lon": "145.9",
    "iso": "PG",
    "status": 1,
    "name": "Aiyura Airport",
    "continent": "OC",
    "lat": "-6.333333"
  },
  {
    "iata": "VAI",
    "lon": "141.30194",
    "iso": "PG",
    "status": 1,
    "name": "Vanimo Airport",
    "continent": "OC",
    "lat": "-2.694722"
  },
  {
    "iata": "WBM",
    "lon": "143.91667",
    "iso": "PG",
    "status": 1,
    "name": "Wapenamanda Airport",
    "continent": "OC",
    "lat": "-5.616667"
  },
  {
    "iata": "WWK",
    "lon": "143.66916",
    "iso": "PG",
    "status": 1,
    "name": "Wewak International Airport",
    "continent": "OC",
    "lat": "-3.580034"
  },
  {
    "iata": "AZB",
    "lon": "148.81667",
    "iso": "PG",
    "status": 1,
    "name": "Amazon Bay Airport",
    "continent": "OC",
    "lat": "-10.15"
  },
  {
    "iata": "BCW",
    "lon": "35.425",
    "iso": "MZ",
    "status": 1,
    "name": "Benguera Island Airport",
    "continent": "AF",
    "lat": "-21.884722"
  },
  {
    "iata": "HKV",
    "lon": "25.55",
    "iso": "BG",
    "status": 1,
    "name": "Haskovo Airport",
    "continent": "EU",
    "lat": "41.933334"
  },
  {
    "iata": "JAM",
    "lon": "26.483334",
    "iso": "BG",
    "status": 1,
    "name": "Bezmer Air Base",
    "continent": "EU",
    "lat": "42.516666"
  },
  {
    "iata": "JEG",
    "lon": "-52.75",
    "iso": "GL",
    "status": 1,
    "name": "Aasiaat Airport",
    "continent": "NA",
    "lat": "68.7"
  },
  {
    "iata": "UAK",
    "lon": "-45.316666",
    "iso": "GL",
    "status": 1,
    "name": "Narsarsuaq Airport",
    "continent": "NA",
    "lat": "61.166668"
  },
  {
    "iata": "CNP",
    "lon": "-22.658333",
    "iso": "GL",
    "status": 1,
    "name": "Neerlerit Inaat Airport",
    "continent": "NA",
    "lat": "70.74306"
  },
  {
    "iata": "GOH",
    "lon": "-51.725",
    "iso": "GL",
    "status": 1,
    "name": "Godthaab / Nuuk Airport",
    "continent": "NA",
    "lat": "64.181946"
  },
  {
    "iata": "JAV",
    "lon": "-51.05991",
    "iso": "GL",
    "status": 1,
    "name": "Ilulissat Airport",
    "continent": "NA",
    "lat": "69.24186"
  },
  {
    "iata": "KUS",
    "lon": "-37.11667",
    "iso": "GL",
    "status": 1,
    "name": "Kulusuk Airport",
    "continent": "NA",
    "lat": "65.566666"
  },
  {
    "iata": "JSU",
    "lon": "-52.93537",
    "iso": "GL",
    "status": 1,
    "name": "Maniitsoq Airport",
    "continent": "NA",
    "lat": "65.41244"
  },
  {
    "iata": "JFR",
    "lon": "-49.70028",
    "iso": "GL",
    "status": 1,
    "name": "Paamiut Airport",
    "continent": "NA",
    "lat": "62.00028"
  },
  {
    "iata": "NAQ",
    "lon": "-69.382996",
    "iso": "GL",
    "status": 1,
    "name": "Qaanaaq Airport",
    "continent": "NA",
    "lat": "77.48948"
  },
  {
    "iata": "SFJ",
    "lon": "-50.719723",
    "iso": "GL",
    "status": 1,
    "name": "Kangerlussuaq Airport",
    "continent": "NA",
    "lat": "67.01222"
  },
  {
    "iata": "JHS",
    "lon": "-53.704166",
    "iso": "GL",
    "status": 1,
    "name": "Sisimiut Airport",
    "continent": "NA",
    "lat": "66.93694"
  },
  {
    "iata": "THU",
    "lon": "-68.7",
    "iso": "GL",
    "status": 1,
    "name": "Thule Air Base",
    "continent": "NA",
    "lat": "76.53333"
  },
  {
    "iata": "JUV",
    "lon": "-56.130554",
    "iso": "GL",
    "status": 1,
    "name": "Upernavik Airport",
    "continent": "NA",
    "lat": "72.790276"
  },
  {
    "iata": "JQA",
    "lon": "-52.702778",
    "iso": "GL",
    "status": 1,
    "name": "Qaarsut Airport",
    "continent": "NA",
    "lat": "70.73194"
  },
  {
    "iata": "BHL",
    "lon": "-113.55",
    "iso": "MX",
    "status": 1,
    "name": null,
    "continent": "NA",
    "lat": "28.95"
  },
  {
    "iata": "AEY",
    "lon": "-18.075068",
    "iso": "IS",
    "status": 1,
    "name": "Akureyri Airport",
    "continent": "EU",
    "lat": "65.654564"
  },
  {
    "iata": "BIU",
    "lon": "-23.983334",
    "iso": "IS",
    "status": 1,
    "name": "Bildudalur Airport",
    "continent": "EU",
    "lat": "65.833336"
  },
  {
    "iata": "BGJ",
    "lon": "-14.5",
    "iso": "IS",
    "status": 1,
    "name": null,
    "continent": "EU",
    "lat": "66.0"
  },
  {
    "iata": "BJD",
    "lon": "-14.75",
    "iso": "IS",
    "status": 1,
    "name": null,
    "continent": "EU",
    "lat": "66.066666"
  },
  {
    "iata": "BLO",
    "lon": "-20.3",
    "iso": "IS",
    "status": 1,
    "name": "Hjaltabakki Airport",
    "continent": "EU",
    "lat": "65.666664"
  },
  {
    "iata": "BQD",
    "iso": "IS",
    "status": 1,
    "name": null,
    "continent": "EU"
  },
  {
    "iata": "BXV",
    "lon": "-14.0",
    "iso": "IS",
    "status": 1,
    "name": null,
    "continent": "EU",
    "lat": "64.76667"
  },
  {
    "iata": "DJU",
    "lon": "-14.268333",
    "iso": "IS",
    "status": 1,
    "name": null,
    "continent": "EU",
    "lat": "64.650276"
  },
  {
    "iata": "EGS",
    "lon": "-14.402778",
    "iso": "IS",
    "status": 1,
    "name": null,
    "continent": "EU",
    "lat": "65.27778"
  },
  {
    "iata": "FAS",
    "lon": "-14.016667",
    "iso": "IS",
    "status": 1,
    "name": null,
    "continent": "EU",
    "lat": "64.95"
  },
  {
    "iata": "FAG",
    "lon": "-16.65",
    "iso": "IS",
    "status": 1,
    "name": null,
    "continent": "EU",
    "lat": "63.88333"
  },
  {
    "iata": "GUU",
    "lon": "-23.166668",
    "iso": "IS",
    "status": 1,
    "name": null,
    "continent": "EU",
    "lat": "64.96667"
  },
  {
    "iata": "GJR",
    "lon": "-21.35",
    "iso": "IS",
    "status": 1,
    "name": null,
    "continent": "EU",
    "lat": "65.98333"
  },
  {
    "iata": "GRY",
    "lon": "-18.016666",
    "iso": "IS",
    "status": 1,
    "name": null,
    "continent": "EU",
    "lat": "66.566666"
  },
  {
    "iata": "HVK",
    "lon": "-22.466667",
    "iso": "IS",
    "status": 1,
    "name": null,
    "continent": "EU",
    "lat": "65.7"
  },
  {
    "iata": "HFN",
    "lon": "-15.266667",
    "iso": "IS",
    "status": 1,
    "name": "Hornafjordur Airport",
    "continent": "EU",
    "lat": "64.28333"
  },
  {
    "iata": "FLI",
    "lon": "-23.7",
    "iso": "IS",
    "status": 1,
    "name": "Holt Airport",
    "continent": "EU",
    "lat": "65.98333"
  },
  {
    "iata": "HZK",
    "lon": "-17.427778",
    "iso": "IS",
    "status": 1,
    "name": "Husavik Airport",
    "continent": "EU",
    "lat": "65.95528"
  },
  {
    "iata": "HVM",
    "lon": "-21.0",
    "iso": "IS",
    "status": 1,
    "name": null,
    "continent": "EU",
    "lat": "65.416664"
  },
  {
    "iata": "HLO",
    "lon": "15.5",
    "iso": "IS",
    "status": 1,
    "name": null,
    "continent": "EU",
    "lat": "29.5"
  },
  {
    "iata": "IFJ",
    "lon": "-23.132778",
    "iso": "IS",
    "status": 1,
    "name": null,
    "continent": "EU",
    "lat": "66.05972"
  },
  {
    "iata": "KEF",
    "lon": "-22.624283",
    "iso": "IS",
    "status": 1,
    "name": "Keflavik International Airport",
    "continent": "EU",
    "lat": "63.997765"
  },
  {
    "iata": "OPA",
    "lon": "-16.483334",
    "iso": "IS",
    "status": 1,
    "name": null,
    "continent": "EU",
    "lat": "66.416664"
  },
  {
    "iata": "SAK",
    "lon": "-19.65",
    "iso": "IS",
    "status": 1,
    "name": null,
    "continent": "EU",
    "lat": "65.75"
  },
  {
    "iata": "NOR",
    "lon": "-22.0",
    "iso": "IS",
    "status": 1,
    "name": null,
    "continent": "EU",
    "lat": "65.166664"
  },
  {
    "iata": "OFJ",
    "lon": "-19.833332",
    "iso": "IS",
    "status": 1,
    "name": null,
    "continent": "EU",
    "lat": "65.583336"
  },
  {
    "iata": "PFJ",
    "lon": "-19.008333",
    "iso": "IS",
    "status": 1,
    "name": "Patreksfjordur Airport",
    "continent": "EU",
    "lat": "65.03333"
  },
  {
    "iata": "RHA",
    "lon": "-21.416668",
    "iso": "IS",
    "status": 1,
    "name": null,
    "continent": "EU",
    "lat": "65.166664"
  },
  {
    "iata": "OLI",
    "lon": "-23.983334",
    "iso": "IS",
    "status": 1,
    "name": "Rif Airport",
    "continent": "EU",
    "lat": "65.0"
  },
  {
    "iata": "RFN",
    "lon": "-15.016667",
    "iso": "IS",
    "status": 1,
    "name": null,
    "continent": "EU",
    "lat": "66.416664"
  },
  {
    "iata": "REK",
    "iso": "IS",
    "status": 1,
    "name": "Reykjavik Airport",
    "continent": "EU"
  },
  {
    "iata": "MVA",
    "lon": "-16.966667",
    "iso": "IS",
    "status": 1,
    "name": null,
    "continent": "EU",
    "lat": "65.61667"
  },
  {
    "iata": "SIJ",
    "lon": "-18.933332",
    "iso": "IS",
    "status": 1,
    "name": "Siglufjordur Airport",
    "continent": "EU",
    "lat": "66.166664"
  },
  {
    "iata": "SYK",
    "lon": "-22.8",
    "iso": "IS",
    "status": 1,
    "name": null,
    "continent": "EU",
    "lat": "65.1"
  },
  {
    "iata": "TEY",
    "lon": "-23.45",
    "iso": "IS",
    "status": 1,
    "name": null,
    "continent": "EU",
    "lat": "65.88333"
  },
  {
    "iata": "THO",
    "lon": "-15.335653",
    "iso": "IS",
    "status": 1,
    "name": "Thorshofn Airport",
    "continent": "EU",
    "lat": "66.219734"
  },
  {
    "iata": "VEY",
    "lon": "-20.277779",
    "iso": "IS",
    "status": 1,
    "name": "Vestmannaeyjar Airport",
    "continent": "EU",
    "lat": "63.426388"
  },
  {
    "iata": "VPN",
    "lon": "-14.846748",
    "iso": "IS",
    "status": 1,
    "name": null,
    "continent": "EU",
    "lat": "65.72167"
  },
  {
    "iata": "BJE",
    "iso": "SD",
    "status": 1,
    "name": "Baleela Airport",
    "continent": "AF"
  },
  {
    "iata": "BJQ",
    "iso": "OM",
    "status": 1,
    "name": "Bahja Airport",
    "continent": "AS"
  },
  {
    "iata": "PRN",
    "lon": "21.035557",
    "iso": "KS",
    "status": 1,
    "name": null,
    "continent": "EU",
    "lat": "42.573612"
  },
  {
    "iata": "BLM",
    "lon": "-74.01667",
    "iso": "MX",
    "status": 1,
    "name": "Bahia De Los Angelos South",
    "continent": "NA",
    "lat": "40.183334"
  },
  {
    "iata": "BMQ",
    "lon": "39.833332",
    "iso": "KE",
    "status": 1,
    "name": "Bamburi Airport",
    "continent": "AF",
    "lat": "-4.5"
  },
  {
    "iata": "RBQ",
    "lon": "-67.55",
    "iso": "BO",
    "status": 1,
    "name": "Rurenabaque Airport",
    "continent": "SA",
    "lat": "-14.45"
  },
  {
    "iata": "BVL",
    "lon": "-63.583332",
    "iso": "BO",
    "status": 1,
    "name": "Baures Airport",
    "continent": "SA",
    "lat": "-13.583333"
  },
  {
    "iata": "HUK",
    "lon": "21.75",
    "iso": "BW",
    "status": 1,
    "name": "Hukuntsi Airport",
    "continent": "AF",
    "lat": "-23.983334"
  },
  {
    "iata": "BCV",
    "lon": "-88.77904",
    "iso": "BZ",
    "status": 1,
    "name": "Belmopan Airport",
    "continent": "NA",
    "lat": "17.270498"
  },
  {
    "iata": "BGK",
    "lon": "-88.4",
    "iso": "BZ",
    "status": 1,
    "name": "Big Creek Airport",
    "continent": "NA",
    "lat": "16.516666"
  },
  {
    "iata": "CUK",
    "lon": "-88.02956",
    "iso": "BZ",
    "status": 1,
    "name": "Caye Caulker Airport",
    "continent": "NA",
    "lat": "17.735527"
  },
  {
    "iata": "CYC",
    "lon": "-88.833336",
    "iso": "BZ",
    "status": 1,
    "name": "Caye Chapel Airport",
    "continent": "NA",
    "lat": "17.666668"
  },
  {
    "iata": "CZH",
    "lon": "-88.410675",
    "iso": "BZ",
    "status": 1,
    "name": "Corozal Municipal Airport",
    "continent": "NA",
    "lat": "18.382334"
  },
  {
    "iata": "DGA",
    "lon": "-88.23039",
    "iso": "BZ",
    "status": 1,
    "name": "Dangriga Airport",
    "continent": "NA",
    "lat": "16.982765"
  },
  {
    "iata": "INB",
    "lon": "-88.43826",
    "iso": "BZ",
    "status": 1,
    "name": "Independence Airport",
    "continent": "NA",
    "lat": "16.535536"
  },
  {
    "iata": "MDB",
    "lon": "-88.32056",
    "iso": "BZ",
    "status": 1,
    "name": "Melinda Airport",
    "continent": "NA",
    "lat": "16.998611"
  },
  {
    "iata": "ORZ",
    "lon": "-88.75",
    "iso": "BZ",
    "status": 1,
    "name": "Orange Walk Airport",
    "continent": "NA",
    "lat": "17.166668"
  },
  {
    "iata": "PLJ",
    "lon": "-88.360886",
    "iso": "BZ",
    "status": 1,
    "name": "Placencia Airport",
    "continent": "NA",
    "lat": "16.53708"
  },
  {
    "iata": "PND",
    "lon": "-88.816666",
    "iso": "BZ",
    "status": 1,
    "name": "Punta Gorda Airport",
    "continent": "NA",
    "lat": "16.1"
  },
  {
    "iata": "SJX",
    "lon": "-88.333336",
    "iso": "BZ",
    "status": 1,
    "name": "Sartaneja Airport",
    "continent": "NA",
    "lat": "18.3"
  },
  {
    "iata": "SPR",
    "lon": "-87.96571",
    "iso": "BZ",
    "status": 1,
    "name": "San Pedro Airport",
    "continent": "NA",
    "lat": "17.917067"
  },
  {
    "iata": "SQS",
    "lon": "-89.03333",
    "iso": "BZ",
    "status": 1,
    "name": "Matthew Spain Airport",
    "continent": "NA",
    "lat": "17.183332"
  },
  {
    "iata": "STU",
    "lon": "-88.45",
    "iso": "BZ",
    "status": 1,
    "name": "Santa Cruz Airport",
    "continent": "NA",
    "lat": "18.266666"
  },
  {
    "iata": "SVK",
    "lon": "-88.34",
    "iso": "BZ",
    "status": 1,
    "name": "Silver Creek Airport",
    "continent": "NA",
    "lat": "16.7253"
  },
  {
    "iata": "TZA",
    "lon": "-88.191666",
    "iso": "BZ",
    "status": 1,
    "name": "Belize City Municipal Airport",
    "continent": "NA",
    "lat": "17.51639"
  },
  {
    "iata": "BZB",
    "lon": "35.49167",
    "iso": "MZ",
    "status": 1,
    "name": "Bazaruto Island Airport",
    "continent": "AF",
    "lat": "-21.534721"
  },
  {
    "iata": "YMV",
    "iso": "CA",
    "status": 1,
    "name": "Mary River Aerodrome",
    "continent": "NA"
  },
  {
    "iata": "YZZ",
    "lon": "-117.6",
    "iso": "CA",
    "status": 1,
    "name": "Trail Airport",
    "continent": "NA",
    "lat": "49.066666"
  },
  {
    "iata": "YAA",
    "lon": "-125.3",
    "iso": "CA",
    "status": 1,
    "name": "Anahim Lake Airport",
    "continent": "NA",
    "lat": "52.45"
  },
  {
    "iata": "JHL",
    "lon": "-111.41889",
    "iso": "CA",
    "status": 1,
    "name": "Fort MacKay/Albian Aerodrome",
    "continent": "NA",
    "lat": "57.22389"
  },
  {
    "iata": "YWM",
    "lon": "-56.01282",
    "iso": "CA",
    "status": 1,
    "name": "Williams Harbour Airport",
    "continent": "NA",
    "lat": "52.335438"
  },
  {
    "iata": "YFX",
    "lon": "-55.683334",
    "iso": "CA",
    "status": 1,
    "name": "St. Lewis (Fox Harbour) Airport",
    "continent": "NA",
    "lat": "52.36667"
  },
  {
    "iata": "YHA",
    "lon": "-56.3",
    "iso": "CA",
    "status": 1,
    "name": "Port Hope Simpson Airport",
    "continent": "NA",
    "lat": "52.533333"
  },
  {
    "iata": "YRG",
    "lon": "-58.416668",
    "iso": "CA",
    "status": 1,
    "name": "Rigolet Airport",
    "continent": "NA",
    "lat": "54.333332"
  },
  {
    "iata": "CDK",
    "lon": "-83.03333",
    "iso": "US",
    "status": 1,
    "name": "George T Lewis Airport",
    "continent": "NA",
    "lat": "29.133333"
  },
  {
    "iata": "YCK",
    "lon": "-126.09047",
    "iso": "CA",
    "status": 1,
    "name": "Colville Lake Airport",
    "continent": "NA",
    "lat": "67.03993"
  },
  {
    "iata": "YLE",
    "lon": "-117.24318",
    "iso": "CA",
    "status": 1,
    "name": null,
    "continent": "NA",
    "lat": "63.132942"
  },
  {
    "iata": "NML",
    "iso": "CA",
    "status": 1,
    "name": "Fort McMurray / Mildred Lake Airport",
    "continent": "NA"
  },
  {
    "iata": "DAS",
    "lon": "-119.712776",
    "iso": "CA",
    "status": 1,
    "name": "Great Bear Lake Airport",
    "continent": "NA",
    "lat": "66.70306"
  },
  {
    "iata": "YFI",
    "iso": "CA",
    "status": 1,
    "name": "Fort Mackay / Firebag",
    "continent": "NA"
  },
  {
    "iata": "OKG",
    "lon": "15.0",
    "iso": "CG",
    "status": 1,
    "name": "Okoyo Airport",
    "continent": "AF",
    "lat": "-1.466667"
  },
  {
    "iata": "SUR",
    "lon": "-88.5475",
    "iso": "CA",
    "status": 1,
    "name": "Summer Beaver Airport",
    "continent": "NA",
    "lat": "52.71528"
  },
  {
    "iata": "YAX",
    "lon": "-89.565",
    "iso": "CA",
    "status": 1,
    "name": "Wapekeka Airport",
    "continent": "NA",
    "lat": "53.251945"
  },
  {
    "iata": "WNN",
    "lon": "-89.166664",
    "iso": "CA",
    "status": 1,
    "name": "Wunnumin Lake Airport",
    "continent": "NA",
    "lat": "52.916668"
  },
  {
    "iata": "YNO",
    "lon": "-92.416664",
    "iso": "CA",
    "status": 1,
    "name": "North Spirit Lake Airport",
    "continent": "NA",
    "lat": "52.5"
  },
  {
    "iata": "OHE",
    "lon": "122.42059",
    "iso": "CN",
    "status": 1,
    "name": "Gu-Lian Airport",
    "continent": "AS",
    "lat": "52.92113"
  },
  {
    "iata": "FUO",
    "lon": "113.28333",
    "iso": "CN",
    "status": 1,
    "name": "Foshan Shadi Airport",
    "continent": "AS",
    "lat": "23.133333"
  },
  {
    "iata": "HUZ",
    "lon": "114.36667",
    "iso": "CN",
    "status": 1,
    "name": "Huizhou Airport",
    "continent": "AS",
    "lat": "23.083332"
  },
  {
    "iata": "JGS",
    "lon": "114.7375",
    "iso": "CN",
    "status": 1,
    "name": "Jinggangshan Airport",
    "continent": "AS",
    "lat": "26.899721"
  },
  {
    "iata": "AEB",
    "lon": "106.96777",
    "iso": "CN",
    "status": 1,
    "name": "Tian Yang Air Base",
    "continent": "AS",
    "lat": "23.71947"
  },
  {
    "iata": "AAT",
    "lon": "88.08444",
    "iso": "CN",
    "status": 1,
    "name": "Altay Air Base",
    "continent": "AS",
    "lat": "47.750362"
  },
  {
    "iata": "YZY",
    "lon": "100.660835",
    "iso": "CN",
    "status": 1,
    "name": "Zhangye Southeast Air Base",
    "continent": "AS",
    "lat": "38.8075"
  },
  {
    "iata": "DDG",
    "lon": "124.28081",
    "iso": "CN",
    "status": 1,
    "name": "Dandong Airport",
    "continent": "AS",
    "lat": "40.032368"
  },
  {
    "iata": "NTG",
    "lon": "120.9756",
    "iso": "CN",
    "status": 1,
    "name": "Nantong Airport",
    "continent": "AS",
    "lat": "32.07292"
  },
  {
    "iata": "XBE",
    "lon": "-90.98333",
    "iso": "CA",
    "status": 1,
    "name": "Bearskin Lake Airport",
    "continent": "NA",
    "lat": "53.95"
  },
  {
    "iata": "KIF",
    "lon": "-89.85",
    "iso": "CA",
    "status": 1,
    "name": "Kingfisher Lake Airport",
    "continent": "NA",
    "lat": "53.01389"
  },
  {
    "iata": "YOG",
    "lon": "-85.916664",
    "iso": "CA",
    "status": 1,
    "name": "Ogoki Post Airport",
    "continent": "NA",
    "lat": "51.666668"
  },
  {
    "iata": "API",
    "lon": "-73.05194",
    "iso": "CO",
    "status": 1,
    "name": "Apiay Airport",
    "continent": "SA",
    "lat": "4.068889"
  },
  {
    "iata": "APO",
    "lon": "-76.71766",
    "iso": "CO",
    "status": 1,
    "name": null,
    "continent": "SA",
    "lat": "7.817678"
  },
  {
    "iata": "ARQ",
    "lon": "-71.43166",
    "iso": "CO",
    "status": 1,
    "name": "El Troncal Airport",
    "continent": "SA",
    "lat": "7.033056"
  },
  {
    "iata": "LCR",
    "lon": "-73.01667",
    "iso": "CO",
    "status": 1,
    "name": "La Chorrera Airport",
    "continent": "SA",
    "lat": "-0.733333"
  },
  {
    "iata": "SNT",
    "lon": "-73.0",
    "iso": "CO",
    "status": 1,
    "name": "Las Cruces Airport",
    "continent": "SA",
    "lat": "7.666667"
  },
  {
    "iata": "TCD",
    "lon": "-69.76667",
    "iso": "CO",
    "status": 1,
    "name": null,
    "continent": "SA",
    "lat": "-2.933333"
  },
  {
    "iata": "YEB",
    "iso": "CA",
    "status": 1,
    "name": "Bar River Airport",
    "continent": "NA"
  },
  {
    "iata": "YHP",
    "lon": "-94.3",
    "iso": "CA",
    "status": 1,
    "name": "Poplar Hill Airport",
    "continent": "NA",
    "lat": "52.083332"
  },
  {
    "iata": "YNX",
    "iso": "CA",
    "status": 1,
    "name": "Snap Lake Airport",
    "continent": "NA"
  },
  {
    "iata": "YKU",
    "lon": "-78.924065",
    "iso": "CA",
    "status": 1,
    "name": "Chisasibi Airport",
    "continent": "NA",
    "lat": "53.806824"
  },
  {
    "iata": "ZTB",
    "lon": "-59.333332",
    "iso": "CA",
    "status": 1,
    "name": null,
    "continent": "NA",
    "lat": "50.716667"
  },
  {
    "iata": "YAU",
    "lon": "-73.31694",
    "iso": "CA",
    "status": 1,
    "name": "Donaldson Airport",
    "continent": "NA",
    "lat": "61.662777"
  },
  {
    "iata": "ZLT",
    "lon": "-58.97601",
    "iso": "CA",
    "status": 1,
    "name": null,
    "continent": "NA",
    "lat": "50.828056"
  },
  {
    "iata": "PST",
    "lon": "-75.666664",
    "iso": "CU",
    "status": 1,
    "name": "Preston Airport",
    "continent": "NA",
    "lat": "20.75"
  },
  {
    "iata": "GEC",
    "lon": "33.716667",
    "iso": "CY",
    "status": 1,
    "name": null,
    "continent": "AS",
    "lat": "35.233334"
  },
  {
    "iata": "YAC",
    "lon": "-91.816666",
    "iso": "CA",
    "status": 1,
    "name": "Cat Lake Airport",
    "continent": "NA",
    "lat": "51.716667"
  },
  {
    "iata": "YAG",
    "lon": "-93.44722",
    "iso": "CA",
    "status": 1,
    "name": "Fort Frances Municipal Airport",
    "continent": "NA",
    "lat": "48.65278"
  },
  {
    "iata": "YAH",
    "lon": "-73.65",
    "iso": "CA",
    "status": 1,
    "name": "La Grande-4 Airport",
    "continent": "NA",
    "lat": "53.75"
  },
  {
    "iata": "YAL",
    "lon": "-126.916664",
    "iso": "CA",
    "status": 1,
    "name": "Alert Bay Airport",
    "continent": "NA",
    "lat": "50.583332"
  },
  {
    "iata": "YAM",
    "lon": "-84.49995",
    "iso": "CA",
    "status": 1,
    "name": "Sault Ste Marie Airport",
    "continent": "NA",
    "lat": "46.485302"
  },
  {
    "iata": "XKS",
    "lon": "-88.64667",
    "iso": "CA",
    "status": 1,
    "name": "Kasabonika Airport",
    "continent": "NA",
    "lat": "53.52"
  },
  {
    "iata": "YKG",
    "lon": "-70.0046",
    "iso": "CA",
    "status": 1,
    "name": "Kangirsuk Airport",
    "continent": "NA",
    "lat": "60.023083"
  },
  {
    "iata": "YAT",
    "lon": "-82.4",
    "iso": "CA",
    "status": 1,
    "name": "Attawapiskat Airport",
    "continent": "NA",
    "lat": "52.941666"
  },
  {
    "iata": "YAV",
    "lon": "-123.3",
    "iso": "CA",
    "status": 1,
    "name": "Winnipeg / St. Andrews Airport",
    "continent": "NA",
    "lat": "48.86667"
  },
  {
    "iata": "YAX",
    "lon": "-89.565",
    "iso": "CA",
    "status": 1,
    "name": "Lac Du Bonnet Airport",
    "continent": "NA",
    "lat": "53.251945"
  },
  {
    "iata": "YAY",
    "lon": "-55.583332",
    "iso": "CA",
    "status": 1,
    "name": "St Anthony Airport",
    "continent": "NA",
    "lat": "51.36667"
  },
  {
    "iata": "YAZ",
    "lon": "-125.77639",
    "iso": "CA",
    "status": 1,
    "name": "Tofino / Long Beach Airport",
    "continent": "NA",
    "lat": "49.076942"
  },
  {
    "iata": "YBB",
    "lon": "-89.85",
    "iso": "CA",
    "status": 1,
    "name": "Kugaaruk Airport",
    "continent": "NA",
    "lat": "68.88333"
  },
  {
    "iata": "YBC",
    "lon": "-68.26667",
    "iso": "CA",
    "status": 1,
    "name": "Baie Comeau Airport",
    "continent": "NA",
    "lat": "49.2"
  },
  {
    "iata": "QBC",
    "lon": "-126.666664",
    "iso": "CA",
    "status": 1,
    "name": "Bella Coola Airport",
    "continent": "NA",
    "lat": "52.333332"
  },
  {
    "iata": "YBE",
    "lon": "-108.48333",
    "iso": "CA",
    "status": 1,
    "name": "Uranium City Airport",
    "continent": "NA",
    "lat": "59.566666"
  },
  {
    "iata": "YBY",
    "lon": "-110.73333",
    "iso": "CA",
    "status": 1,
    "name": "Bonnyville Airport",
    "continent": "NA",
    "lat": "54.266666"
  },
  {
    "iata": "YBG",
    "lon": "-70.98861",
    "iso": "CA",
    "status": 1,
    "name": "CFB Bagotville",
    "continent": "NA",
    "lat": "48.322224"
  },
  {
    "iata": "YBK",
    "lon": "-96.083336",
    "iso": "CA",
    "status": 1,
    "name": "Baker Lake Airport",
    "continent": "NA",
    "lat": "64.3"
  },
  {
    "iata": "YBL",
    "lon": "-125.26813",
    "iso": "CA",
    "status": 1,
    "name": "Campbell River Airport",
    "continent": "NA",
    "lat": "49.951725"
  },
  {
    "iata": "XTL",
    "lon": "-98.51344",
    "iso": "CA",
    "status": 1,
    "name": "Tadoule Lake Airport",
    "continent": "NA",
    "lat": "58.707954"
  },
  {
    "iata": "YBR",
    "lon": "-99.94677",
    "iso": "CA",
    "status": 1,
    "name": "Brandon Municipal Airport",
    "continent": "NA",
    "lat": "49.908688"
  },
  {
    "iata": "YBT",
    "lon": "-101.67899",
    "iso": "CA",
    "status": 1,
    "name": "Brochet Airport",
    "continent": "NA",
    "lat": "57.88847"
  },
  {
    "iata": "YBV",
    "lon": "-97.02141",
    "iso": "CA",
    "status": 1,
    "name": "Berens River Airport",
    "continent": "NA",
    "lat": "52.358696"
  },
  {
    "iata": "YBX",
    "lon": "-57.216667",
    "iso": "CA",
    "status": 1,
    "name": "Lourdes de Blanc Sablon Airport",
    "continent": "NA",
    "lat": "51.433334"
  },
  {
    "iata": "YRF",
    "lon": "-57.03828",
    "iso": "CA",
    "status": 1,
    "name": "Cartwright Airport",
    "continent": "NA",
    "lat": "53.682606"
  },
  {
    "iata": "YCB",
    "lon": "-105.13333",
    "iso": "CA",
    "status": 1,
    "name": "Cambridge Bay Airport",
    "continent": "NA",
    "lat": "69.1"
  },
  {
    "iata": "YCC",
    "lon": "-74.566666",
    "iso": "CA",
    "status": 1,
    "name": "Cornwall Regional Airport",
    "continent": "NA",
    "lat": "45.1"
  },
  {
    "iata": "YCD",
    "lon": "-123.86667",
    "iso": "CA",
    "status": 1,
    "name": "Nanaimo Airport",
    "continent": "NA",
    "lat": "49.05"
  },
  {
    "iata": "YCE",
    "lon": "-81.48333",
    "iso": "CA",
    "status": 1,
    "name": "James T. Field Memorial Aerodrome",
    "continent": "NA",
    "lat": "43.283333"
  },
  {
    "iata": "YCG",
    "lon": "-117.632225",
    "iso": "CA",
    "status": 1,
    "name": "Castlegar/West Kootenay Regional Airport",
    "continent": "NA",
    "lat": "49.295555"
  },
  {
    "iata": "YCH",
    "lon": "-65.44744",
    "iso": "CA",
    "status": 1,
    "name": "Miramichi Airport",
    "continent": "NA",
    "lat": "47.014008"
  },
  {
    "iata": "YCL",
    "lon": "-66.32881",
    "iso": "CA",
    "status": 1,
    "name": "Charlo Airport",
    "continent": "NA",
    "lat": "47.99093"
  },
  {
    "iata": "YCN",
    "lon": "-81.01289",
    "iso": "CA",
    "status": 1,
    "name": "Cochrane Airport",
    "continent": "NA",
    "lat": "49.106018"
  },
  {
    "iata": "YCO",
    "lon": "-115.083336",
    "iso": "CA",
    "status": 1,
    "name": "Kugluktuk Airport",
    "continent": "NA",
    "lat": "67.833336"
  },
  {
    "iata": "YCQ",
    "lon": "-121.63333",
    "iso": "CA",
    "status": 1,
    "name": "Chetwynd Airport",
    "continent": "NA",
    "lat": "55.683334"
  },
  {
    "iata": "YCR",
    "lon": "-97.75144",
    "iso": "CA",
    "status": 1,
    "name": "Cross Lake (Charlie Sinclair Memorial) Airport",
    "continent": "NA",
    "lat": "54.61306"
  },
  {
    "iata": "YCS",
    "lon": "-90.71667",
    "iso": "CA",
    "status": 1,
    "name": "Chesterfield Inlet Airport",
    "continent": "NA",
    "lat": "63.333332"
  },
  {
    "iata": "YCY",
    "lon": "-68.5",
    "iso": "CA",
    "status": 1,
    "name": "Clyde River Airport",
    "continent": "NA",
    "lat": "70.416664"
  },
  {
    "iata": "YCZ",
    "lon": "-115.87361",
    "iso": "CA",
    "status": 1,
    "name": "Fairmont Hot Springs Airport",
    "continent": "NA",
    "lat": "50.331944"
  },
  {
    "iata": "YDA",
    "lon": "-139.12083",
    "iso": "CA",
    "status": 1,
    "name": "Dawson City Airport",
    "continent": "NA",
    "lat": "64.041664"
  },
  {
    "iata": "YDB",
    "lon": "-139.01666",
    "iso": "CA",
    "status": 1,
    "name": "Burwash Airport",
    "continent": "NA",
    "lat": "61.35"
  },
  {
    "iata": "YDF",
    "lon": "-57.399727",
    "iso": "CA",
    "status": 1,
    "name": "Deer Lake Airport",
    "continent": "NA",
    "lat": "49.21027"
  },
  {
    "iata": "YDM",
    "lon": "138.8216",
    "iso": "CA",
    "status": 1,
    "name": "Ross River Airport",
    "continent": "NA",
    "lat": "-17.939201"
  },
  {
    "iata": "YDN",
    "lon": "-100.05",
    "iso": "CA",
    "status": 1,
    "name": "Dauphin Barker Airport",
    "continent": "NA",
    "lat": "51.1"
  },
  {
    "iata": "YDO",
    "lon": "-72.23333",
    "iso": "CA",
    "status": 1,
    "name": "Dolbeau St Felicien Airport",
    "continent": "NA",
    "lat": "48.86667"
  },
  {
    "iata": "YDP",
    "lon": "-61.666668",
    "iso": "CA",
    "status": 1,
    "name": "Nain Airport",
    "continent": "NA",
    "lat": "56.533333"
  },
  {
    "iata": "YDQ",
    "lon": "-120.183334",
    "iso": "CA",
    "status": 1,
    "name": "Dawson Creek Airport",
    "continent": "NA",
    "lat": "55.733334"
  },
  {
    "iata": "YEG",
    "lon": "-113.584045",
    "iso": "CA",
    "status": 1,
    "name": "Edmonton International Airport",
    "continent": "NA",
    "lat": "53.307377"
  },
  {
    "iata": "YEK",
    "lon": "-94.05",
    "iso": "CA",
    "status": 1,
    "name": "Arviat Airport",
    "continent": "NA",
    "lat": "61.11667"
  },
  {
    "iata": "YEL",
    "lon": "-82.56306",
    "iso": "CA",
    "status": 1,
    "name": "Elliot Lake Municipal Airport",
    "continent": "NA",
    "lat": "46.352222"
  },
  {
    "iata": "YEM",
    "lon": "-81.858055",
    "iso": "CA",
    "status": 1,
    "name": "Manitoulin East Municipal Airport",
    "continent": "NA",
    "lat": "45.842777"
  },
  {
    "iata": "YEN",
    "lon": "-102.96282",
    "iso": "CA",
    "status": 1,
    "name": "Estevan Airport",
    "continent": "NA",
    "lat": "49.207542"
  },
  {
    "iata": "YER",
    "lon": "-87.833336",
    "iso": "CA",
    "status": 1,
    "name": "Fort Severn Airport",
    "continent": "NA",
    "lat": "56.033333"
  },
  {
    "iata": "YET",
    "lon": "-116.46667",
    "iso": "CA",
    "status": 1,
    "name": "Edson Airport",
    "continent": "NA",
    "lat": "53.583332"
  },
  {
    "iata": "YEU",
    "lon": "-85.933334",
    "iso": "CA",
    "status": 1,
    "name": "Eureka Airport",
    "continent": "NA",
    "lat": "80.0"
  },
  {
    "iata": "YEV",
    "lon": "-133.49767",
    "iso": "CA",
    "status": 1,
    "name": "Inuvik Mike Zubko Airport",
    "continent": "NA",
    "lat": "68.30665"
  },
  {
    "iata": "YEY",
    "lon": "-78.25",
    "iso": "CA",
    "status": 1,
    "name": "Amos Magny Airport",
    "continent": "NA",
    "lat": "48.552223"
  },
  {
    "iata": "YFA",
    "lon": "-81.59167",
    "iso": "CA",
    "status": 1,
    "name": "Fort Albany Airport",
    "continent": "NA",
    "lat": "52.24167"
  },
  {
    "iata": "YFB",
    "lon": "-68.53658",
    "iso": "CA",
    "status": 1,
    "name": "Iqaluit Airport",
    "continent": "NA",
    "lat": "63.75175"
  },
  {
    "iata": "YFC",
    "lon": "-66.52978",
    "iso": "CA",
    "status": 1,
    "name": "Fredericton Airport",
    "continent": "NA",
    "lat": "45.87316"
  },
  {
    "iata": "YFE",
    "lon": "-69.066666",
    "iso": "CA",
    "status": 1,
    "name": "Forestville Airport",
    "continent": "NA",
    "lat": "48.75"
  },
  {
    "iata": "YFH",
    "lon": "-87.89796",
    "iso": "CA",
    "status": 1,
    "name": "Fort Hope Airport",
    "continent": "NA",
    "lat": "51.559345"
  },
  {
    "iata": "YTM",
    "lon": "-74.75528",
    "iso": "CA",
    "status": 1,
    "name": "La Macaza / Mont-Tremblant International Inc Airport",
    "continent": "NA",
    "lat": "46.515556"
  },
  {
    "iata": "YFO",
    "lon": "-101.683334",
    "iso": "CA",
    "status": 1,
    "name": "Flin Flon Airport",
    "continent": "NA",
    "lat": "54.683334"
  },
  {
    "iata": "YFR",
    "lon": "-113.683334",
    "iso": "CA",
    "status": 1,
    "name": "Fort Resolution Airport",
    "continent": "NA",
    "lat": "61.183334"
  },
  {
    "iata": "YFS",
    "lon": "-121.23333",
    "iso": "CA",
    "status": 1,
    "name": "Fort Simpson Airport",
    "continent": "NA",
    "lat": "61.75"
  },
  {
    "iata": "YMN",
    "lon": "-59.166668",
    "iso": "CA",
    "status": 1,
    "name": "Makkovik Airport",
    "continent": "NA",
    "lat": "55.166668"
  },
  {
    "iata": "YGB",
    "lon": "-124.53333",
    "iso": "CA",
    "status": 1,
    "name": "Texada Gillies Bay Airport",
    "continent": "NA",
    "lat": "49.7"
  },
  {
    "iata": "YGD",
    "iso": "CA",
    "status": 1,
    "name": "Goderich Airport",
    "continent": "NA"
  },
  {
    "iata": "YGH",
    "lon": "-128.65",
    "iso": "CA",
    "status": 1,
    "name": "Fort Good Hope Airport",
    "continent": "NA",
    "lat": "66.26667"
  },
  {
    "iata": "YGK",
    "lon": "-76.59366",
    "iso": "CA",
    "status": 1,
    "name": "Kingston Norman Rogers Airport",
    "continent": "NA",
    "lat": "44.219513"
  },
  {
    "iata": "YGL",
    "lon": "-77.70639",
    "iso": "CA",
    "status": 1,
    "name": null,
    "continent": "NA",
    "lat": "53.629723"
  },
  {
    "iata": "YGM",
    "lon": "-97.0",
    "iso": "CA",
    "status": 1,
    "name": "Gimli Industrial Park Airport",
    "continent": "NA",
    "lat": "50.666668"
  },
  {
    "iata": "YGO",
    "lon": "-94.49117",
    "iso": "CA",
    "status": 1,
    "name": "Gods Lake Narrows Airport",
    "continent": "NA",
    "lat": "54.5577"
  },
  {
    "iata": "YGP",
    "lon": "-64.48333",
    "iso": "CA",
    "status": 1,
    "name": null,
    "continent": "NA",
    "lat": "48.766666"
  },
  {
    "iata": "YGQ",
    "lon": "-86.93593",
    "iso": "CA",
    "status": 1,
    "name": "Geraldton Greenstone Regional Airport",
    "continent": "NA",
    "lat": "49.779892"
  },
  {
    "iata": "YGR",
    "lon": "-61.9",
    "iso": "CA",
    "status": 1,
    "name": null,
    "continent": "NA",
    "lat": "47.36667"
  },
  {
    "iata": "YGT",
    "lon": "-81.816666",
    "iso": "CA",
    "status": 1,
    "name": "Igloolik Airport",
    "continent": "NA",
    "lat": "69.4"
  },
  {
    "iata": "YGV",
    "lon": "-63.583332",
    "iso": "CA",
    "status": 1,
    "name": "Havre St Pierre Airport",
    "continent": "NA",
    "lat": "50.25"
  },
  {
    "iata": "YGW",
    "lon": "-77.76667",
    "iso": "CA",
    "status": 1,
    "name": "Kuujjuarapik Airport",
    "continent": "NA",
    "lat": "55.279167"
  },
  {
    "iata": "YGX",
    "lon": "-94.7",
    "iso": "CA",
    "status": 1,
    "name": "Gillam Airport",
    "continent": "NA",
    "lat": "56.35"
  },
  {
    "iata": "YGZ",
    "lon": "-82.95722",
    "iso": "CA",
    "status": 1,
    "name": "Grise Fiord Airport",
    "continent": "NA",
    "lat": "76.41778"
  },
  {
    "iata": "YQC",
    "lon": "-69.63333",
    "iso": "CA",
    "status": 1,
    "name": "Quaqtaq Airport",
    "continent": "NA",
    "lat": "61.333332"
  },
  {
    "iata": "YHD",
    "lon": "-92.833336",
    "iso": "CA",
    "status": 1,
    "name": "Dryden Regional Airport",
    "continent": "NA",
    "lat": "49.783333"
  },
  {
    "iata": "YHE",
    "lon": "-121.416664",
    "iso": "CA",
    "status": 1,
    "name": "Hope Airport",
    "continent": "NA",
    "lat": "49.416668"
  },
  {
    "iata": "YHF",
    "lon": "-83.683334",
    "iso": "CA",
    "status": 1,
    "name": null,
    "continent": "NA",
    "lat": "49.716667"
  },
  {
    "iata": "YNS",
    "lon": "-76.74167",
    "iso": "CA",
    "status": 1,
    "name": "Nemiscau Airport",
    "continent": "NA",
    "lat": "49.74167"
  },
  {
    "iata": "YHI",
    "lon": "-117.71667",
    "iso": "CA",
    "status": 1,
    "name": "Ulukhaktok Holman Airport",
    "continent": "NA",
    "lat": "70.71667"
  },
  {
    "iata": "YHK",
    "lon": "-95.95",
    "iso": "CA",
    "status": 1,
    "name": "Gjoa Haven Airport",
    "continent": "NA",
    "lat": "68.63333"
  },
  {
    "iata": "YHM",
    "lon": "-79.92631",
    "iso": "CA",
    "status": 1,
    "name": "John C. Munro Hamilton International Airport",
    "continent": "NA",
    "lat": "43.16138"
  },
  {
    "iata": "YHN",
    "lon": "-84.78333",
    "iso": "CA",
    "status": 1,
    "name": "Hornepayne Municipal Airport",
    "continent": "NA",
    "lat": "49.216667"
  },
  {
    "iata": "YHO",
    "lon": "-60.229443",
    "iso": "CA",
    "status": 1,
    "name": "Hopedale Airport",
    "continent": "NA",
    "lat": "55.448334"
  },
  {
    "iata": "YHR",
    "lon": "-59.5",
    "iso": "CA",
    "status": 1,
    "name": "Chevery Airport",
    "continent": "NA",
    "lat": "50.5"
  },
  {
    "iata": "YHT",
    "lon": "-137.5",
    "iso": "CA",
    "status": 1,
    "name": "Haines Junction Airport",
    "continent": "NA",
    "lat": "60.75"
  },
  {
    "iata": "YHU",
    "lon": "-73.6",
    "iso": "CA",
    "status": 1,
    "name": null,
    "continent": "NA",
    "lat": "45.5"
  },
  {
    "iata": "YHY",
    "lon": "-115.778336",
    "iso": "CA",
    "status": 1,
    "name": "Hay River / Merlyn Carter Airport",
    "continent": "NA",
    "lat": "60.845554"
  },
  {
    "iata": "YHZ",
    "lon": "-63.51425",
    "iso": "CA",
    "status": 1,
    "name": "Halifax / Stanfield International Airport",
    "continent": "NA",
    "lat": "44.88496"
  },
  {
    "iata": "YIB",
    "lon": "-91.61667",
    "iso": "CA",
    "status": 1,
    "name": "Atikokan Municipal Airport",
    "continent": "NA",
    "lat": "48.75"
  },
  {
    "iata": "YDG",
    "lon": "-65.76667",
    "iso": "CA",
    "status": 1,
    "name": "Digby / Annapolis Regional Airport",
    "continent": "NA",
    "lat": "44.61667"
  },
  {
    "iata": "YIF",
    "lon": "-58.666668",
    "iso": "CA",
    "status": 1,
    "name": "St Augustin Airport",
    "continent": "NA",
    "lat": "51.216667"
  },
  {
    "iata": "YIK",
    "lon": "-76.083336",
    "iso": "CA",
    "status": 1,
    "name": "Ivujivik Airport",
    "continent": "NA",
    "lat": "62.416668"
  },
  {
    "iata": "YIO",
    "lon": "-78.0",
    "iso": "CA",
    "status": 1,
    "name": "Pond Inlet Airport",
    "continent": "NA",
    "lat": "72.683334"
  },
  {
    "iata": "YIV",
    "lon": "-94.653046",
    "iso": "CA",
    "status": 1,
    "name": "Island Lake Airport",
    "continent": "NA",
    "lat": "53.856785"
  },
  {
    "iata": "YJF",
    "lon": "-123.46667",
    "iso": "CA",
    "status": 1,
    "name": "Fort Liard Airport",
    "continent": "NA",
    "lat": "60.25"
  },
  {
    "iata": "YJN",
    "lon": "-73.333336",
    "iso": "CA",
    "status": 1,
    "name": "St Jean Airport",
    "continent": "NA",
    "lat": "45.333332"
  },
  {
    "iata": "YJT",
    "lon": "-58.55",
    "iso": "CA",
    "status": 1,
    "name": "Stephenville Airport",
    "continent": "NA",
    "lat": "48.533333"
  },
  {
    "iata": "YKA",
    "lon": "-120.442024",
    "iso": "CA",
    "status": 1,
    "name": "Kamloops Airport",
    "continent": "NA",
    "lat": "50.70545"
  },
  {
    "iata": "LAK",
    "lon": "-134.98584",
    "iso": "CA",
    "status": 1,
    "name": "Aklavik Airport",
    "continent": "NA",
    "lat": "68.22222"
  },
  {
    "iata": "YKF",
    "lon": "-80.385056",
    "iso": "CA",
    "status": 1,
    "name": "Waterloo Airport",
    "continent": "NA",
    "lat": "43.458977"
  },
  {
    "iata": "YKJ",
    "lon": "-105.61864",
    "iso": "CA",
    "status": 1,
    "name": "Key Lake Airport",
    "continent": "NA",
    "lat": "57.256287"
  },
  {
    "iata": "YKL",
    "lon": "-64.816666",
    "iso": "CA",
    "status": 1,
    "name": "Schefferville Airport",
    "continent": "NA",
    "lat": "54.783333"
  },
  {
    "iata": "AKV",
    "lon": "-78.583336",
    "iso": "CA",
    "status": 1,
    "name": "Akulivik Airport",
    "continent": "NA",
    "lat": "60.733334"
  },
  {
    "iata": "YKQ",
    "lon": "-78.75",
    "iso": "CA",
    "status": 1,
    "name": "Waskaganish Airport",
    "continent": "NA",
    "lat": "51.4875"
  },
  {
    "iata": "YKX",
    "lon": "-80.03333",
    "iso": "CA",
    "status": 1,
    "name": "Kirkland Lake Airport",
    "continent": "NA",
    "lat": "48.15"
  },
  {
    "iata": "YKY",
    "lon": "-109.17811",
    "iso": "CA",
    "status": 1,
    "name": "Kindersley Airport",
    "continent": "NA",
    "lat": "51.517605"
  },
  {
    "iata": "YKZ",
    "lon": "-79.36774",
    "iso": "CA",
    "status": 1,
    "name": "Buttonville Municipal Airport",
    "continent": "NA",
    "lat": "43.86131"
  },
  {
    "iata": "YPJ",
    "lon": "-69.666664",
    "iso": "CA",
    "status": 1,
    "name": "Aupaluk Airport",
    "continent": "NA",
    "lat": "59.3"
  },
  {
    "iata": "YLC",
    "lon": "-69.88333",
    "iso": "CA",
    "status": 1,
    "name": "Kimmirut Airport",
    "continent": "NA",
    "lat": "62.85"
  },
  {
    "iata": "YLD",
    "lon": "-83.352776",
    "iso": "CA",
    "status": 1,
    "name": "Chapleau Airport",
    "continent": "NA",
    "lat": "47.819443"
  },
  {
    "iata": "YLH",
    "lon": "-87.93",
    "iso": "CA",
    "status": 1,
    "name": "Lansdowne House Airport",
    "continent": "NA",
    "lat": "52.183334"
  },
  {
    "iata": "YLJ",
    "lon": "-108.666664",
    "iso": "CA",
    "status": 1,
    "name": "Meadow Lake Airport",
    "continent": "NA",
    "lat": "54.5"
  },
  {
    "iata": "YSG",
    "lon": "-110.075554",
    "iso": "CA",
    "status": 1,
    "name": "Lutselk'e Airport",
    "continent": "NA",
    "lat": "62.41861"
  },
  {
    "iata": "YLL",
    "lon": "-110.072716",
    "iso": "CA",
    "status": 1,
    "name": "Lloydminster Airport",
    "continent": "NA",
    "lat": "53.31297"
  },
  {
    "iata": "YLR",
    "lon": "-100.03333",
    "iso": "CA",
    "status": 1,
    "name": "Leaf Rapids Airport",
    "continent": "NA",
    "lat": "56.5"
  },
  {
    "iata": "YLT",
    "lon": "-62.283333",
    "iso": "CA",
    "status": 1,
    "name": "Alert Airport",
    "continent": "NA",
    "lat": "82.51667"
  },
  {
    "iata": "XGR",
    "lon": "-65.98333",
    "iso": "CA",
    "status": 1,
    "name": "Kangiqsualujjuaq (Georges River) Airport",
    "continent": "NA",
    "lat": "58.5"
  },
  {
    "iata": "YLW",
    "lon": "-119.38139",
    "iso": "CA",
    "status": 1,
    "name": "Kelowna Airport",
    "continent": "NA",
    "lat": "49.95154"
  },
  {
    "iata": "YMA",
    "lon": "-135.87361",
    "iso": "CA",
    "status": 1,
    "name": "Mayo Airport",
    "continent": "NA",
    "lat": "63.61639"
  },
  {
    "iata": "YME",
    "lon": "-67.51667",
    "iso": "CA",
    "status": 1,
    "name": "Matane Airport",
    "continent": "NA",
    "lat": "48.833332"
  },
  {
    "iata": "YMG",
    "lon": "-85.86667",
    "iso": "CA",
    "status": 1,
    "name": "Manitouwadge Airport",
    "continent": "NA",
    "lat": "49.083332"
  },
  {
    "iata": "YMH",
    "lon": "-55.833332",
    "iso": "CA",
    "status": 1,
    "name": "Mary's Harbour Airport",
    "continent": "NA",
    "lat": "52.3"
  },
  {
    "iata": "YMJ",
    "lon": "-105.53333",
    "iso": "CA",
    "status": 1,
    "name": "Moose Jaw Air Vice Marshal C. M. McEwen Airport",
    "continent": "NA",
    "lat": "50.38333"
  },
  {
    "iata": "YML",
    "lon": "-70.166664",
    "iso": "CA",
    "status": 1,
    "name": "Charlevoix Airport",
    "continent": "NA",
    "lat": "47.65"
  },
  {
    "iata": "YMM",
    "lon": "-111.22395",
    "iso": "CA",
    "status": 1,
    "name": "Fort McMurray Airport",
    "continent": "NA",
    "lat": "56.65659"
  },
  {
    "iata": "YMO",
    "lon": "-80.604164",
    "iso": "CA",
    "status": 1,
    "name": "Moosonee Airport",
    "continent": "NA",
    "lat": "51.29111"
  },
  {
    "iata": "YMT",
    "lon": "-74.36667",
    "iso": "CA",
    "status": 1,
    "name": "Chapais Airport",
    "continent": "NA",
    "lat": "49.916668"
  },
  {
    "iata": "YUD",
    "lon": "-76.51833",
    "iso": "CA",
    "status": 1,
    "name": "Umiujaq Airport",
    "continent": "NA",
    "lat": "56.53611"
  },
  {
    "iata": "YMX",
    "lon": "-74.03",
    "iso": "CA",
    "status": 1,
    "name": "Montreal International (Mirabel) Airport",
    "continent": "NA",
    "lat": "45.666668"
  },
  {
    "iata": "YNA",
    "lon": "-61.8",
    "iso": "CA",
    "status": 1,
    "name": "Natashquan Airport",
    "continent": "NA",
    "lat": "50.183334"
  },
  {
    "iata": "YNC",
    "lon": "-78.816666",
    "iso": "CA",
    "status": 1,
    "name": "Wemindji Airport",
    "continent": "NA",
    "lat": "53.0"
  },
  {
    "iata": "YND",
    "lon": "-75.56283",
    "iso": "CA",
    "status": 1,
    "name": "Ottawa / Gatineau Airport",
    "continent": "NA",
    "lat": "45.52063"
  },
  {
    "iata": "YNE",
    "lon": "-97.84583",
    "iso": "CA",
    "status": 1,
    "name": "Norway House Airport",
    "continent": "NA",
    "lat": "53.954166"
  },
  {
    "iata": "YNL",
    "lon": "-104.08111",
    "iso": "CA",
    "status": 1,
    "name": "Points North Landing Airport",
    "continent": "NA",
    "lat": "58.275"
  },
  {
    "iata": "YNM",
    "lon": "-77.8",
    "iso": "CA",
    "status": 1,
    "name": "Matagami Airport",
    "continent": "NA",
    "lat": "49.75"
  },
  {
    "iata": "YNN",
    "lon": "119.23333",
    "iso": "CA",
    "status": 1,
    "name": "Nejanilini Lake Airport",
    "continent": "NA",
    "lat": "-22.766666"
  },
  {
    "iata": "HZP",
    "lon": "-111.70111",
    "iso": "CA",
    "status": 1,
    "name": "Fort Mackay / Horizon Airport",
    "continent": "NA",
    "lat": "57.381668"
  },
  {
    "iata": "YOA",
    "lon": "-110.61444",
    "iso": "CA",
    "status": 1,
    "name": "Ekati Airport",
    "continent": "NA",
    "lat": "64.69945"
  },
  {
    "iata": "YOC",
    "lon": "-139.83333",
    "iso": "CA",
    "status": 1,
    "name": "Old Crow Airport",
    "continent": "NA",
    "lat": "67.583336"
  },
  {
    "iata": "YOD",
    "lon": "-110.25",
    "iso": "CA",
    "status": 1,
    "name": "CFB Cold Lake",
    "continent": "NA",
    "lat": "54.466667"
  },
  {
    "iata": "YOH",
    "lon": "-95.27668",
    "iso": "CA",
    "status": 1,
    "name": "Oxford House Airport",
    "continent": "NA",
    "lat": "54.934242"
  },
  {
    "iata": "YOJ",
    "lon": "-117.168335",
    "iso": "CA",
    "status": 1,
    "name": "High Level Airport",
    "continent": "NA",
    "lat": "58.618332"
  },
  {
    "iata": "YOO",
    "lon": "-78.9",
    "iso": "CA",
    "status": 1,
    "name": "Oshawa Airport",
    "continent": "NA",
    "lat": "43.916668"
  },
  {
    "iata": "YOP",
    "lon": "-119.4",
    "iso": "CA",
    "status": 1,
    "name": "Rainbow Lake Airport",
    "continent": "NA",
    "lat": "58.5"
  },
  {
    "iata": "YOS",
    "lon": "-80.8375",
    "iso": "CA",
    "status": 1,
    "name": "Owen Sound / Billy Bishop Regional Airport",
    "continent": "NA",
    "lat": "44.59028"
  },
  {
    "iata": "YOW",
    "lon": "-75.672775",
    "iso": "CA",
    "status": 1,
    "name": "Ottawa Macdonald-Cartier International Airport",
    "continent": "NA",
    "lat": "45.32083"
  },
  {
    "iata": "YPA",
    "lon": "-105.683334",
    "iso": "CA",
    "status": 1,
    "name": "Prince Albert Glass Field",
    "continent": "NA",
    "lat": "53.216667"
  },
  {
    "iata": "YPC",
    "lon": "-124.07468",
    "iso": "CA",
    "status": 1,
    "name": "Paulatuk (Nora Aliqatchialuk Ruben) Airport",
    "continent": "NA",
    "lat": "69.35514"
  },
  {
    "iata": "YPS",
    "lon": "-61.35",
    "iso": "CA",
    "status": 1,
    "name": "Port Hawkesbury Airport",
    "continent": "NA",
    "lat": "45.61667"
  },
  {
    "iata": "YPE",
    "lon": "-117.44028",
    "iso": "CA",
    "status": 1,
    "name": "Peace River Airport",
    "continent": "NA",
    "lat": "56.22778"
  },
  {
    "iata": "YPG",
    "lon": "-98.3",
    "iso": "CA",
    "status": 1,
    "name": "Southport Airport",
    "continent": "NA",
    "lat": "49.966667"
  },
  {
    "iata": "YPH",
    "lon": "-78.166664",
    "iso": "CA",
    "status": 1,
    "name": "Inukjuak Airport",
    "continent": "NA",
    "lat": "58.433334"
  },
  {
    "iata": "YPL",
    "lon": "-90.208336",
    "iso": "CA",
    "status": 1,
    "name": "Pickle Lake Airport",
    "continent": "NA",
    "lat": "51.208332"
  },
  {
    "iata": "YPM",
    "lon": "-93.97287",
    "iso": "CA",
    "status": 1,
    "name": "Pikangikum Airport",
    "continent": "NA",
    "lat": "51.817375"
  },
  {
    "iata": "YPN",
    "lon": "-64.28831",
    "iso": "CA",
    "status": 1,
    "name": "Port Menier Airport",
    "continent": "NA",
    "lat": "49.836533"
  },
  {
    "iata": "YPO",
    "lon": "-85.433334",
    "iso": "CA",
    "status": 1,
    "name": "Peawanuck Airport",
    "continent": "NA",
    "lat": "54.983334"
  },
  {
    "iata": "YPQ",
    "lon": "-78.316666",
    "iso": "CA",
    "status": 1,
    "name": "Peterborough Airport",
    "continent": "NA",
    "lat": "44.3"
  },
  {
    "iata": "YPR",
    "lon": "-130.44083",
    "iso": "CA",
    "status": 1,
    "name": "Prince Rupert Airport",
    "continent": "NA",
    "lat": "54.287224"
  },
  {
    "iata": "YPW",
    "lon": "-124.5",
    "iso": "CA",
    "status": 1,
    "name": "Powell River Airport",
    "continent": "NA",
    "lat": "49.816666"
  },
  {
    "iata": "YPX",
    "lon": "-77.166664",
    "iso": "CA",
    "status": 1,
    "name": "Puvirnituq Airport",
    "continent": "NA",
    "lat": "60.033333"
  },
  {
    "iata": "YPY",
    "lon": "-111.11406",
    "iso": "CA",
    "status": 1,
    "name": "Fort Chipewyan Airport",
    "continent": "NA",
    "lat": "58.76799"
  },
  {
    "iata": "YQA",
    "lon": "-79.3",
    "iso": "CA",
    "status": 1,
    "name": "Muskoka Airport",
    "continent": "NA",
    "lat": "44.966667"
  },
  {
    "iata": "YQB",
    "lon": "-71.383385",
    "iso": "CA",
    "status": 1,
    "name": "Quebec Jean Lesage International Airport",
    "continent": "NA",
    "lat": "46.792038"
  },
  {
    "iata": "YQD",
    "lon": "-101.1",
    "iso": "CA",
    "status": 1,
    "name": "The Pas Airport",
    "continent": "NA",
    "lat": "53.966667"
  },
  {
    "iata": "YQF",
    "lon": "-113.89333",
    "iso": "CA",
    "status": 1,
    "name": "Red Deer Regional Airport",
    "continent": "NA",
    "lat": "52.176945"
  },
  {
    "iata": "YQG",
    "lon": "-82.96389",
    "iso": "CA",
    "status": 1,
    "name": "Windsor Airport",
    "continent": "NA",
    "lat": "42.274166"
  },
  {
    "iata": "YQH",
    "lon": "-128.825",
    "iso": "CA",
    "status": 1,
    "name": "Watson Lake Airport",
    "continent": "NA",
    "lat": "60.12361"
  },
  {
    "iata": "YQI",
    "lon": "-66.083336",
    "iso": "CA",
    "status": 1,
    "name": "Yarmouth Airport",
    "continent": "NA",
    "lat": "43.833332"
  },
  {
    "iata": "YQK",
    "lon": "-94.35833",
    "iso": "CA",
    "status": 1,
    "name": "Kenora Airport",
    "continent": "NA",
    "lat": "49.7875"
  },
  {
    "iata": "YQL",
    "lon": "-112.791664",
    "iso": "CA",
    "status": 1,
    "name": "Lethbridge County Airport",
    "continent": "NA",
    "lat": "49.631943"
  },
  {
    "iata": "YQM",
    "lon": "-64.68123",
    "iso": "CA",
    "status": 1,
    "name": "Greater Moncton International Airport",
    "continent": "NA",
    "lat": "46.104774"
  },
  {
    "iata": "YQN",
    "lon": "-86.7",
    "iso": "CA",
    "status": 1,
    "name": "Nakina Airport",
    "continent": "NA",
    "lat": "50.166668"
  },
  {
    "iata": "YQQ",
    "lon": "-124.907814",
    "iso": "CA",
    "status": 1,
    "name": "Comox Airport",
    "continent": "NA",
    "lat": "49.705864"
  },
  {
    "iata": "YQR",
    "lon": "-104.65519",
    "iso": "CA",
    "status": 1,
    "name": "Regina International Airport",
    "continent": "NA",
    "lat": "50.433327"
  },
  {
    "iata": "YQS",
    "lon": "-81.2",
    "iso": "CA",
    "status": 1,
    "name": "St Thomas Municipal Airport",
    "continent": "NA",
    "lat": "42.783333"
  },
  {
    "iata": "YQT",
    "lon": "-89.31167",
    "iso": "CA",
    "status": 1,
    "name": "Thunder Bay Airport",
    "continent": "NA",
    "lat": "48.37184"
  },
  {
    "iata": "YQU",
    "lon": "-118.873604",
    "iso": "CA",
    "status": 1,
    "name": "Grande Prairie Airport",
    "continent": "NA",
    "lat": "55.177074"
  },
  {
    "iata": "YQV",
    "lon": "-102.45935",
    "iso": "CA",
    "status": 1,
    "name": "Yorkton Municipal Airport",
    "continent": "NA",
    "lat": "51.264095"
  },
  {
    "iata": "YQW",
    "lon": "-108.25",
    "iso": "CA",
    "status": 1,
    "name": "North Battleford Airport",
    "continent": "NA",
    "lat": "52.766666"
  },
  {
    "iata": "YQX",
    "lon": "-54.56333",
    "iso": "CA",
    "status": 1,
    "name": "Gander International Airport",
    "continent": "NA",
    "lat": "48.946667"
  },
  {
    "iata": "YQY",
    "lon": "-60.05",
    "iso": "CA",
    "status": 1,
    "name": "Sydney / J.A. Douglas McCurdy Airport",
    "continent": "NA",
    "lat": "46.166668"
  },
  {
    "iata": "YQZ",
    "lon": "-122.50972",
    "iso": "CA",
    "status": 1,
    "name": "Quesnel Airport",
    "continent": "NA",
    "lat": "53.02667"
  },
  {
    "iata": "YRA",
    "lon": "-117.35",
    "iso": "CA",
    "status": 1,
    "name": "Rae Lakes Airport",
    "continent": "NA",
    "lat": "64.11667"
  },
  {
    "iata": "YRB",
    "lon": "-94.96667",
    "iso": "CA",
    "status": 1,
    "name": "Resolute Bay Airport",
    "continent": "NA",
    "lat": "74.71667"
  },
  {
    "iata": "YRI",
    "lon": "-69.53333",
    "iso": "CA",
    "status": 1,
    "name": null,
    "continent": "NA",
    "lat": "47.833332"
  },
  {
    "iata": "YRJ",
    "lon": "-72.26733",
    "iso": "CA",
    "status": 1,
    "name": "Roberval Airport",
    "continent": "NA",
    "lat": "48.522343"
  },
  {
    "iata": "YRL",
    "lon": "-93.80006",
    "iso": "CA",
    "status": 1,
    "name": "Red Lake Airport",
    "continent": "NA",
    "lat": "51.068764"
  },
  {
    "iata": "YRO",
    "lon": "-75.76459",
    "iso": "CA",
    "status": 1,
    "name": "Ottawa / Rockcliffe Airport",
    "continent": "NA",
    "lat": "45.4592"
  },
  {
    "iata": "YRP",
    "iso": "CA",
    "status": 1,
    "name": "Ottawa / Carp Airport",
    "continent": "NA"
  },
  {
    "iata": "YRQ",
    "lon": "-72.683334",
    "iso": "CA",
    "status": 1,
    "name": null,
    "continent": "NA",
    "lat": "46.35"
  },
  {
    "iata": "YRS",
    "lon": "-93.55762",
    "iso": "CA",
    "status": 1,
    "name": "Red Sucker Lake Airport",
    "continent": "NA",
    "lat": "54.16757"
  },
  {
    "iata": "YRT",
    "lon": "-92.10019",
    "iso": "CA",
    "status": 1,
    "name": "Rankin Inlet Airport",
    "continent": "NA",
    "lat": "62.80998"
  },
  {
    "iata": "YRV",
    "lon": "-118.166664",
    "iso": "CA",
    "status": 1,
    "name": "Revelstoke Airport",
    "continent": "NA",
    "lat": "51.0"
  },
  {
    "iata": "YSB",
    "lon": "-80.79592",
    "iso": "CA",
    "status": 1,
    "name": "Sudbury Airport",
    "continent": "NA",
    "lat": "46.62296"
  },
  {
    "iata": "YSC",
    "lon": "-71.9",
    "iso": "CA",
    "status": 1,
    "name": "Sherbrooke Airport",
    "continent": "NA",
    "lat": "45.416668"
  },
  {
    "iata": "YSF",
    "lon": "-105.83657",
    "iso": "CA",
    "status": 1,
    "name": "Stony Rapids Airport",
    "continent": "NA",
    "lat": "59.251163"
  },
  {
    "iata": "YSH",
    "lon": "-75.93959",
    "iso": "CA",
    "status": 1,
    "name": "Smiths Falls-Montague (Russ Beach) Airport",
    "continent": "NA",
    "lat": "44.94829"
  },
  {
    "iata": "YSJ",
    "lon": "-65.8902",
    "iso": "CA",
    "status": 1,
    "name": "Saint John Airport",
    "continent": "NA",
    "lat": "45.32948"
  },
  {
    "iata": "YSK",
    "lon": "-79.21667",
    "iso": "CA",
    "status": 1,
    "name": "Sanikiluaq Airport",
    "continent": "NA",
    "lat": "56.55"
  },
  {
    "iata": "YSL",
    "lon": "-67.9",
    "iso": "CA",
    "status": 1,
    "name": "St Leonard Airport",
    "continent": "NA",
    "lat": "47.183334"
  },
  {
    "iata": "YSM",
    "lon": "-111.96667",
    "iso": "CA",
    "status": 1,
    "name": "Fort Smith Airport",
    "continent": "NA",
    "lat": "60.016666"
  },
  {
    "iata": "YCM",
    "lon": "-79.166664",
    "iso": "CA",
    "status": 1,
    "name": "Niagara District Airport",
    "continent": "NA",
    "lat": "43.2"
  },
  {
    "iata": "YSP",
    "lon": "-86.35",
    "iso": "CA",
    "status": 1,
    "name": "Marathon Airport",
    "continent": "NA",
    "lat": "48.75"
  },
  {
    "iata": "YST",
    "lon": "-94.8516",
    "iso": "CA",
    "status": 1,
    "name": "St. Theresa Point Airport",
    "continent": "NA",
    "lat": "53.846127"
  },
  {
    "iata": "YSU",
    "lon": "-57.983334",
    "iso": "CA",
    "status": 1,
    "name": "Summerside Airport",
    "continent": "NA",
    "lat": "49.0"
  },
  {
    "iata": "YSY",
    "lon": "-125.24104",
    "iso": "CA",
    "status": 1,
    "name": "Sachs Harbour (David Nasogaluak Jr. Saaryuaq) Airport",
    "continent": "NA",
    "lat": "71.99145"
  },
  {
    "iata": "YTA",
    "lon": "-77.24944",
    "iso": "CA",
    "status": 1,
    "name": "Pembroke Airport",
    "continent": "NA",
    "lat": "45.861668"
  },
  {
    "iata": "YTE",
    "lon": "-76.53333",
    "iso": "CA",
    "status": 1,
    "name": "Cape Dorset Airport",
    "continent": "NA",
    "lat": "64.23333"
  },
  {
    "iata": "YTF",
    "lon": "-71.642715",
    "iso": "CA",
    "status": 1,
    "name": "Alma Airport",
    "continent": "NA",
    "lat": "48.509655"
  },
  {
    "iata": "YTH",
    "lon": "-97.8605",
    "iso": "CA",
    "status": 1,
    "name": "Thompson Airport",
    "continent": "NA",
    "lat": "55.79753"
  },
  {
    "iata": "YTL",
    "lon": "-89.88952",
    "iso": "CA",
    "status": 1,
    "name": "Big Trout Lake Airport",
    "continent": "NA",
    "lat": "53.81594"
  },
  {
    "iata": "YTQ",
    "lon": "-69.95633",
    "iso": "CA",
    "status": 1,
    "name": "Tasiujaq Airport",
    "continent": "NA",
    "lat": "58.6678"
  },
  {
    "iata": "YTR",
    "lon": "-77.583336",
    "iso": "CA",
    "status": 1,
    "name": "CFB Trenton",
    "continent": "NA",
    "lat": "44.1"
  },
  {
    "iata": "YTS",
    "lon": "-81.37164",
    "iso": "CA",
    "status": 1,
    "name": "Timmins/Victor M. Power",
    "continent": "NA",
    "lat": "48.566372"
  },
  {
    "iata": "YTZ",
    "lon": "-79.39585",
    "iso": "CA",
    "status": 1,
    "name": "Billy Bishop Toronto City Centre Airport",
    "continent": "NA",
    "lat": "43.632023"
  },
  {
    "iata": "YUB",
    "lon": "-133.025",
    "iso": "CA",
    "status": 1,
    "name": "Tuktoyaktuk Airport",
    "continent": "NA",
    "lat": "69.436386"
  },
  {
    "iata": "YUL",
    "lon": "-73.74991",
    "iso": "CA",
    "status": 1,
    "name": "Montreal / Pierre Elliott Trudeau International Airport",
    "continent": "NA",
    "lat": "45.457714"
  },
  {
    "iata": "YUT",
    "lon": "-86.25",
    "iso": "CA",
    "status": 1,
    "name": "Repulse Bay Airport",
    "continent": "NA",
    "lat": "66.53333"
  },
  {
    "iata": "YUX",
    "lon": "-81.25",
    "iso": "CA",
    "status": 1,
    "name": "Hall Beach Airport",
    "continent": "NA",
    "lat": "68.78333"
  },
  {
    "iata": "YUY",
    "lon": "-78.83056",
    "iso": "CA",
    "status": 1,
    "name": "Rouyn Noranda Airport",
    "continent": "NA",
    "lat": "48.205555"
  },
  {
    "iata": "YVB",
    "lon": "-65.45808",
    "iso": "CA",
    "status": 1,
    "name": "Bonaventure Airport",
    "continent": "NA",
    "lat": "48.069084"
  },
  {
    "iata": "YVC",
    "lon": "-105.26066",
    "iso": "CA",
    "status": 1,
    "name": "La Ronge Airport",
    "continent": "NA",
    "lat": "55.15126"
  },
  {
    "iata": "YVD",
    "lon": "146.18889",
    "iso": "CA",
    "status": 1,
    "name": "Virden/R.J. (Bob) Andrew Field Regional Aerodrome",
    "continent": "NA",
    "lat": "-7.55"
  },
  {
    "iata": "YVE",
    "lon": "-119.333336",
    "iso": "CA",
    "status": 1,
    "name": "Vernon Airport",
    "continent": "NA",
    "lat": "50.25"
  },
  {
    "iata": "YVM",
    "lon": "-63.833332",
    "iso": "CA",
    "status": 1,
    "name": "Qikiqtarjuaq Airport",
    "continent": "NA",
    "lat": "67.583336"
  },
  {
    "iata": "YVO",
    "lon": "-77.78858",
    "iso": "CA",
    "status": 1,
    "name": "Val-d'Or Airport",
    "continent": "NA",
    "lat": "48.052605"
  },
  {
    "iata": "YVP",
    "lon": "-68.41798",
    "iso": "CA",
    "status": 1,
    "name": "Kuujjuaq Airport",
    "continent": "NA",
    "lat": "58.10024"
  },
  {
    "iata": "YVQ",
    "lon": "-126.79337",
    "iso": "CA",
    "status": 1,
    "name": "Norman Wells Airport",
    "continent": "NA",
    "lat": "65.277855"
  },
  {
    "iata": "YVR",
    "lon": "-123.17919",
    "iso": "CA",
    "status": 1,
    "name": "Vancouver International Airport",
    "continent": "NA",
    "lat": "49.1947"
  },
  {
    "iata": "YVT",
    "lon": "-108.46667",
    "iso": "CA",
    "status": 1,
    "name": "Buffalo Narrows Airport",
    "continent": "NA",
    "lat": "55.86667"
  },
  {
    "iata": "YVV",
    "lon": "-81.166664",
    "iso": "CA",
    "status": 1,
    "name": "Wiarton Airport",
    "continent": "NA",
    "lat": "44.666668"
  },
  {
    "iata": "YVZ",
    "lon": "-94.5",
    "iso": "CA",
    "status": 1,
    "name": "Deer Lake Airport",
    "continent": "NA",
    "lat": "52.666668"
  },
  {
    "iata": "YWA",
    "lon": "-77.28333",
    "iso": "CA",
    "status": 1,
    "name": "Petawawa Airport",
    "continent": "NA",
    "lat": "45.9"
  },
  {
    "iata": "YWG",
    "lon": "-97.23333",
    "iso": "CA",
    "status": 1,
    "name": "Winnipeg / James Armstrong Richardson International Airport",
    "continent": "NA",
    "lat": "49.9"
  },
  {
    "iata": "YWJ",
    "lon": "-123.5",
    "iso": "CA",
    "status": 1,
    "name": null,
    "continent": "NA",
    "lat": "65.166664"
  },
  {
    "iata": "YWK",
    "lon": "-66.874",
    "iso": "CA",
    "status": 1,
    "name": "Wabush Airport",
    "continent": "NA",
    "lat": "52.926315"
  },
  {
    "iata": "YWL",
    "lon": "-122.04444",
    "iso": "CA",
    "status": 1,
    "name": "Williams Lake Airport",
    "continent": "NA",
    "lat": "52.184723"
  },
  {
    "iata": "YWP",
    "lon": "-87.36889",
    "iso": "CA",
    "status": 1,
    "name": "Webequie Airport",
    "continent": "NA",
    "lat": "52.95972"
  },
  {
    "iata": "YWY",
    "lon": "-123.438614",
    "iso": "CA",
    "status": 1,
    "name": "Wrigley Airport",
    "continent": "NA",
    "lat": "63.210556"
  },
  {
    "iata": "YXC",
    "lon": "-115.787025",
    "iso": "CA",
    "status": 1,
    "name": "Cranbrook Airport",
    "continent": "NA",
    "lat": "49.61437"
  },
  {
    "iata": "YXD",
    "lon": "-113.51667",
    "iso": "CA",
    "status": 1,
    "name": "Edmonton City Centre (Blatchford Field) Airport",
    "continent": "NA",
    "lat": "53.566666"
  },
  {
    "iata": "YXE",
    "lon": "-106.69037",
    "iso": "CA",
    "status": 1,
    "name": "Saskatoon John G. Diefenbaker International Airport",
    "continent": "NA",
    "lat": "52.169704"
  },
  {
    "iata": "YXH",
    "lon": "-110.72083",
    "iso": "CA",
    "status": 1,
    "name": "Medicine Hat Airport",
    "continent": "NA",
    "lat": "50.015835"
  },
  {
    "iata": "YXJ",
    "lon": "-120.73437",
    "iso": "CA",
    "status": 1,
    "name": "Fort St John Airport",
    "continent": "NA",
    "lat": "56.247883"
  },
  {
    "iata": "YXK",
    "lon": "-68.55",
    "iso": "CA",
    "status": 1,
    "name": "Rimouski Airport",
    "continent": "NA",
    "lat": "48.433334"
  },
  {
    "iata": "YXL",
    "lon": "-91.903",
    "iso": "CA",
    "status": 1,
    "name": "Sioux Lookout Airport",
    "continent": "NA",
    "lat": "50.115208"
  },
  {
    "iata": "YXN",
    "lon": "-92.6",
    "iso": "CA",
    "status": 1,
    "name": "Whale Cove Airport",
    "continent": "NA",
    "lat": "62.233334"
  },
  {
    "iata": "YXP",
    "lon": "-65.73333",
    "iso": "CA",
    "status": 1,
    "name": "Pangnirtung Airport",
    "continent": "NA",
    "lat": "66.13333"
  },
  {
    "iata": "YXQ",
    "lon": "-141.0",
    "iso": "CA",
    "status": 1,
    "name": "Beaver Creek Airport",
    "continent": "NA",
    "lat": "62.0"
  },
  {
    "iata": "YXR",
    "lon": "-79.851944",
    "iso": "CA",
    "status": 1,
    "name": "Earlton (Timiskaming Regional) Airport",
    "continent": "NA",
    "lat": "47.697224"
  },
  {
    "iata": "YXS",
    "lon": "-122.67396",
    "iso": "CA",
    "status": 1,
    "name": "Prince George Airport",
    "continent": "NA",
    "lat": "53.88381"
  },
  {
    "iata": "YXT",
    "lon": "-128.57445",
    "iso": "CA",
    "status": 1,
    "name": "Terrace Airport",
    "continent": "NA",
    "lat": "54.465557"
  },
  {
    "iata": "YXU",
    "lon": "-81.14965",
    "iso": "CA",
    "status": 1,
    "name": "London Airport",
    "continent": "NA",
    "lat": "43.02802"
  },
  {
    "iata": "YXX",
    "lon": "-122.361946",
    "iso": "CA",
    "status": 1,
    "name": "Abbotsford Airport",
    "continent": "NA",
    "lat": "49.025555"
  },
  {
    "iata": "YXY",
    "lon": "-135.06667",
    "iso": "CA",
    "status": 1,
    "name": "Whitehorse / Erik Nielsen International Airport",
    "continent": "NA",
    "lat": "60.716667"
  },
  {
    "iata": "YXZ",
    "lon": "-84.785835",
    "iso": "CA",
    "status": 1,
    "name": "Wawa Airport",
    "continent": "NA",
    "lat": "47.9625"
  },
  {
    "iata": "YYB",
    "lon": "-79.42725",
    "iso": "CA",
    "status": 1,
    "name": "North Bay Airport",
    "continent": "NA",
    "lat": "46.356823"
  },
  {
    "iata": "YYC",
    "lon": "-114.01055",
    "iso": "CA",
    "status": 1,
    "name": "Calgary International Airport",
    "continent": "NA",
    "lat": "51.131393"
  },
  {
    "iata": "YYD",
    "lon": "-127.180275",
    "iso": "CA",
    "status": 1,
    "name": "Smithers Airport",
    "continent": "NA",
    "lat": "54.825558"
  },
  {
    "iata": "YYE",
    "lon": "-122.583336",
    "iso": "CA",
    "status": 1,
    "name": "Fort Nelson Airport",
    "continent": "NA",
    "lat": "58.833332"
  },
  {
    "iata": "YYF",
    "lon": "-119.6",
    "iso": "CA",
    "status": 1,
    "name": "Penticton Airport",
    "continent": "NA",
    "lat": "49.46472"
  },
  {
    "iata": "YYG",
    "lon": "-63.131737",
    "iso": "CA",
    "status": 1,
    "name": "Charlottetown Airport",
    "continent": "NA",
    "lat": "46.285896"
  },
  {
    "iata": "YYH",
    "lon": "-93.51667",
    "iso": "CA",
    "status": 1,
    "name": "Taloyoak Airport",
    "continent": "NA",
    "lat": "69.53333"
  },
  {
    "iata": "YYJ",
    "lon": "-123.43096",
    "iso": "CA",
    "status": 1,
    "name": "Victoria International Airport",
    "continent": "NA",
    "lat": "48.640266"
  },
  {
    "iata": "YYL",
    "lon": "-101.066666",
    "iso": "CA",
    "status": 1,
    "name": "Lynn Lake Airport",
    "continent": "NA",
    "lat": "56.86667"
  },
  {
    "iata": "YYN",
    "lon": "-107.833336",
    "iso": "CA",
    "status": 1,
    "name": "Swift Current Airport",
    "continent": "NA",
    "lat": "50.283333"
  },
  {
    "iata": "YYQ",
    "lon": "-94.07449",
    "iso": "CA",
    "status": 1,
    "name": "Churchill Airport",
    "continent": "NA",
    "lat": "58.74819"
  },
  {
    "iata": "YYR",
    "lon": "-60.4124",
    "iso": "CA",
    "status": 1,
    "name": "Goose Bay Airport",
    "continent": "NA",
    "lat": "53.313534"
  },
  {
    "iata": "YYT",
    "lon": "-52.74334",
    "iso": "CA",
    "status": 1,
    "name": "St Johns International Airport",
    "continent": "NA",
    "lat": "47.61282"
  },
  {
    "iata": "YYU",
    "lon": "-82.47083",
    "iso": "CA",
    "status": 1,
    "name": "Kapuskasing Airport",
    "continent": "NA",
    "lat": "49.4125"
  },
  {
    "iata": "YYW",
    "lon": "-88.91173",
    "iso": "CA",
    "status": 1,
    "name": "Armstrong Airport",
    "continent": "NA",
    "lat": "50.29431"
  },
  {
    "iata": "YYY",
    "lon": "-68.2",
    "iso": "CA",
    "status": 1,
    "name": "Mont Joli Airport",
    "continent": "NA",
    "lat": "48.6"
  },
  {
    "iata": "YYZ",
    "lon": "-79.61146",
    "iso": "CA",
    "status": 1,
    "name": "Lester B. Pearson International Airport",
    "continent": "NA",
    "lat": "43.681583"
  },
  {
    "iata": "YZD",
    "lon": "-79.46555",
    "iso": "CA",
    "status": 1,
    "name": "Downsview Airport",
    "continent": "NA",
    "lat": "43.74278"
  },
  {
    "iata": "YZE",
    "lon": "-82.56778",
    "iso": "CA",
    "status": 1,
    "name": "Gore Bay Manitoulin Airport",
    "continent": "NA",
    "lat": "45.885277"
  },
  {
    "iata": "YZF",
    "lon": "-114.4375",
    "iso": "CA",
    "status": 1,
    "name": "Yellowknife Airport",
    "continent": "NA",
    "lat": "62.470867"
  },
  {
    "iata": "YZG",
    "lon": "-75.63333",
    "iso": "CA",
    "status": 1,
    "name": "Salluit Airport",
    "continent": "NA",
    "lat": "62.2"
  },
  {
    "iata": "YZH",
    "lon": "-114.78333",
    "iso": "CA",
    "status": 1,
    "name": "Slave Lake Airport",
    "continent": "NA",
    "lat": "55.3"
  },
  {
    "iata": "YZP",
    "lon": "-131.81277",
    "iso": "CA",
    "status": 1,
    "name": "Sandspit Airport",
    "continent": "NA",
    "lat": "53.254444"
  },
  {
    "iata": "YZR",
    "lon": "-82.31111",
    "iso": "CA",
    "status": 1,
    "name": "Chris Hadfield Airport",
    "continent": "NA",
    "lat": "42.997223"
  },
  {
    "iata": "YZS",
    "lon": "-83.36667",
    "iso": "CA",
    "status": 1,
    "name": "Coral Harbour Airport",
    "continent": "NA",
    "lat": "64.2"
  },
  {
    "iata": "YZT",
    "lon": "-127.36389",
    "iso": "CA",
    "status": 1,
    "name": "Port Hardy Airport",
    "continent": "NA",
    "lat": "50.680557"
  },
  {
    "iata": "YZU",
    "lon": "-115.78333",
    "iso": "CA",
    "status": 1,
    "name": "Whitecourt Airport",
    "continent": "NA",
    "lat": "54.15"
  },
  {
    "iata": "YZV",
    "lon": "-66.26404",
    "iso": "CA",
    "status": 1,
    "name": null,
    "continent": "NA",
    "lat": "50.21751"
  },
  {
    "iata": "YZW",
    "lon": "-132.71666",
    "iso": "CA",
    "status": 1,
    "name": "Teslin Airport",
    "continent": "NA",
    "lat": "60.166668"
  },
  {
    "iata": "YZX",
    "lon": "-118.666664",
    "iso": "CA",
    "status": 1,
    "name": "CFB Greenwood",
    "continent": "NA",
    "lat": "49.166668"
  },
  {
    "iata": "YZY",
    "lon": "100.660835",
    "iso": "CA",
    "status": 1,
    "name": "Mackenzie Airport",
    "continent": "NA",
    "lat": "38.8075"
  },
  {
    "iata": "ZAC",
    "lon": "-96.09192",
    "iso": "CA",
    "status": 1,
    "name": "York Landing Airport",
    "continent": "NA",
    "lat": "56.089516"
  },
  {
    "iata": "YSN",
    "lon": "-119.23333",
    "iso": "CA",
    "status": 1,
    "name": "Salmon Arm Airport",
    "continent": "NA",
    "lat": "50.683334"
  },
  {
    "iata": "YDT",
    "lon": "-123.183334",
    "iso": "CA",
    "status": 1,
    "name": "Burlington Executive",
    "continent": "NA",
    "lat": "49.183334"
  },
  {
    "iata": "ZBD",
    "iso": "CA",
    "status": 1,
    "name": "Boundary Bay Airport",
    "continent": "NA"
  },
  {
    "iata": "ZBF",
    "lon": "-65.73944",
    "iso": "CA",
    "status": 1,
    "name": "Ilford Airport",
    "continent": "NA",
    "lat": "47.629166"
  },
  {
    "iata": "ZBF",
    "lon": "-65.73944",
    "iso": "CA",
    "status": 1,
    "name": "Bathurst Airport",
    "continent": "NA",
    "lat": "47.629166"
  },
  {
    "iata": "ZBM",
    "lon": "-72.833336",
    "iso": "CA",
    "status": 1,
    "name": "Bromont Airport",
    "continent": "NA",
    "lat": "45.316666"
  },
  {
    "iata": "ZEE",
    "iso": "CA",
    "status": 1,
    "name": "Kelsey Airport",
    "continent": "NA"
  },
  {
    "iata": "ZEM",
    "lon": "-78.51667",
    "iso": "CA",
    "status": 1,
    "name": "Eastmain River Airport",
    "continent": "NA",
    "lat": "52.25"
  },
  {
    "iata": "ZFA",
    "lon": "-133.36667",
    "iso": "CA",
    "status": 1,
    "name": "Faro Airport",
    "continent": "NA",
    "lat": "63.216667"
  },
  {
    "iata": "ZFD",
    "lon": "-107.18119",
    "iso": "CA",
    "status": 1,
    "name": "Fond-Du-Lac Airport",
    "continent": "NA",
    "lat": "59.33421"
  },
  {
    "iata": "ZFG",
    "iso": "CA",
    "status": 1,
    "name": "Pukatawagan Airport",
    "continent": "NA"
  },
  {
    "iata": "ZFM",
    "lon": "-134.95277",
    "iso": "CA",
    "status": 1,
    "name": "Fort Mcpherson Airport",
    "continent": "NA",
    "lat": "67.477776"
  },
  {
    "iata": "ZFN",
    "lon": "-125.566666",
    "iso": "CA",
    "status": 1,
    "name": "Tulita Airport",
    "continent": "NA",
    "lat": "64.916664"
  },
  {
    "iata": "ZGF",
    "lon": "-118.433334",
    "iso": "CA",
    "status": 1,
    "name": "Grand Forks Airport",
    "continent": "NA",
    "lat": "49.016666"
  },
  {
    "iata": "ZGI",
    "lon": "-94.07965",
    "iso": "CA",
    "status": 1,
    "name": "Gods River Airport",
    "continent": "NA",
    "lat": "54.83914"
  },
  {
    "iata": "ZGR",
    "lon": "-95.46667",
    "iso": "CA",
    "status": 1,
    "name": "Little Grand Rapids Airport",
    "continent": "NA",
    "lat": "52.066666"
  },
  {
    "iata": "ZJG",
    "lon": "-98.04611",
    "iso": "CA",
    "status": 1,
    "name": "Jenpeg Airport",
    "continent": "NA",
    "lat": "54.519444"
  },
  {
    "iata": "ZJN",
    "lon": "-101.23333",
    "iso": "CA",
    "status": 1,
    "name": "Swan River Airport",
    "continent": "NA",
    "lat": "52.11667"
  },
  {
    "iata": "ZKE",
    "lon": "-81.333336",
    "iso": "CA",
    "status": 1,
    "name": "Kashechewan Airport",
    "continent": "NA",
    "lat": "52.333332"
  },
  {
    "iata": "YTD",
    "lon": "-97.7",
    "iso": "CA",
    "status": 1,
    "name": "Thicket Portage Airport",
    "continent": "NA",
    "lat": "55.316666"
  },
  {
    "iata": "MSA",
    "lon": "-91.98333",
    "iso": "CA",
    "status": 1,
    "name": "Muskrat Dam Airport",
    "continent": "NA",
    "lat": "53.816666"
  },
  {
    "iata": "PIW",
    "lon": "-97.333336",
    "iso": "CA",
    "status": 1,
    "name": "Pikwitonei Airport",
    "continent": "NA",
    "lat": "55.7"
  },
  {
    "iata": "ZMT",
    "lon": "-132.15",
    "iso": "CA",
    "status": 1,
    "name": "Masset Airport",
    "continent": "NA",
    "lat": "54.016666"
  },
  {
    "iata": "ZNG",
    "lon": "-97.26667",
    "iso": "CA",
    "status": 1,
    "name": "Poplar River Airport",
    "continent": "NA",
    "lat": "53.0"
  },
  {
    "iata": "ZPB",
    "lon": "-92.195274",
    "iso": "CA",
    "status": 1,
    "name": "Sachigo Lake Airport",
    "continent": "NA",
    "lat": "53.890556"
  },
  {
    "iata": "ZRJ",
    "lon": "-91.316666",
    "iso": "CA",
    "status": 1,
    "name": "Round Lake (Weagamow Lake) Airport",
    "continent": "NA",
    "lat": "52.95"
  },
  {
    "iata": "ZSJ",
    "lon": "-93.23333",
    "iso": "CA",
    "status": 1,
    "name": "Sandy Lake Airport",
    "continent": "NA",
    "lat": "53.033333"
  },
  {
    "iata": "ZSN",
    "iso": "CA",
    "status": 1,
    "name": "South Indian Lake Airport",
    "continent": "NA"
  },
  {
    "iata": "ZTM",
    "lon": "-92.08035",
    "iso": "CA",
    "status": 1,
    "name": "Shamattawa Airport",
    "continent": "NA",
    "lat": "55.858505"
  },
  {
    "iata": "ZUC",
    "lon": "-91.833336",
    "iso": "CA",
    "status": 1,
    "name": "Ignace Municipal Airport",
    "continent": "NA",
    "lat": "49.5"
  },
  {
    "iata": "ZUM",
    "lon": "-64.10917",
    "iso": "CA",
    "status": 1,
    "name": "Churchill Falls Airport",
    "continent": "NA",
    "lat": "53.56278"
  },
  {
    "iata": "ZWH",
    "iso": "CA",
    "status": 1,
    "name": "Lac Brochet Airport",
    "continent": "NA"
  },
  {
    "iata": "ZWL",
    "lon": "-103.1683",
    "iso": "CA",
    "status": 1,
    "name": "Wollaston Lake Airport",
    "continent": "NA",
    "lat": "58.106743"
  },
  {
    "iata": "QLD",
    "iso": "DZ",
    "status": 1,
    "name": "Blida Airport",
    "continent": "AF"
  },
  {
    "iata": "BUJ",
    "lon": "4.15",
    "iso": "DZ",
    "status": 1,
    "name": "Bou Saada Airport",
    "continent": "AF",
    "lat": "35.166668"
  },
  {
    "iata": "BJA",
    "lon": "5.083333",
    "iso": "DZ",
    "status": 1,
    "name": "Soummam Airport",
    "continent": "AF",
    "lat": "36.75"
  },
  {
    "iata": "ALG",
    "lon": "3.21167",
    "iso": "DZ",
    "status": 1,
    "name": "Houari Boumediene Airport",
    "continent": "AF",
    "lat": "36.70058"
  },
  {
    "iata": "DJG",
    "lon": "9.488889",
    "iso": "DZ",
    "status": 1,
    "name": "Djanet Inedbirene Airport",
    "continent": "AF",
    "lat": "24.465279"
  },
  {
    "iata": "QFD",
    "iso": "DZ",
    "status": 1,
    "name": "Boufarik Airport",
    "continent": "AF"
  },
  {
    "iata": "VVZ",
    "lon": "8.55",
    "iso": "DZ",
    "status": 1,
    "name": "Illizi Takhamalt Airport",
    "continent": "AF",
    "lat": "26.533333"
  },
  {
    "iata": "QSF",
    "lon": "5.331111",
    "iso": "DZ",
    "status": 1,
    "name": "Ain Arnat Airport",
    "continent": "AF",
    "lat": "36.18139"
  },